stop_id,stop_code,stop_name,stop_desc,stop_lat,stop_lon,stop_url,location_type,parent_station,stop_area
9333,,Draugystės geležinkelio stotis,,55.64447,21.20147,https://www.stops.lt/klaipeda/index.html#stop/2514,,,1
9490,,Klaipėdos AS; 11 aikštelė,,55.71939,21.13895,https://www.stops.lt/klaipeda/index.html#stop/9975,,,1
9802,,Klaipėdos AS; 11 aikštelė,,55.71902,21.13923,https://www.stops.lt/klaipeda/index.html#stop/9972,,,1
7027,,Klaipėdos AS; 6 aikštelė,,55.71937,21.13877,https://www.stops.lt/klaipeda/index.html#stop/9993,,,1
9334,,Stariškės st.,,55.64153,21.20853,https://www.stops.lt/klaipeda/index.html#stop/2515,,,1
9665,,Jakų st.,,55.69571,21.21703,https://www.stops.lt/klaipeda/index.html#stop/7703-1,,,1
5227,,A.Brako st.,,55.79061,21.12455,https://www.stops.lt/klaipeda/index.html#stop/8890,,,1
9069,,Mėnulio st.,,55.75059,21.21054,https://www.stops.lt/klaipeda/index.html#stop/9039,,,1
9070,,Sendvario Saulės mokykla,,55.75487,21.19854,https://www.stops.lt/klaipeda/index.html#stop/9040,,,1
166,,Melnragės st.,,55.73754,21.09190,https://www.stops.lt/klaipeda/index.html#stop/0201,,,1
167,,Melnragės st.,,55.73750,21.09421,https://www.stops.lt/klaipeda/index.html#stop/0202,,,1
7433,,Muldžių st.,,55.76343,21.16851,https://www.stops.lt/klaipeda/index.html#stop/8799,,,1
3808,,Autobusų stotis,,55.71984,21.13578,https://www.stops.lt/klaipeda/index.html#stop/0905,,,1
4339,,Autobusų stotis,,55.71978,21.13651,https://www.stops.lt/klaipeda/index.html#stop/0909,,,1
7647,,Autobusų stotis,,55.71971,21.13722,https://www.stops.lt/klaipeda/index.html#stop/0912,,,1
4383,,Baltijos žiedo st.,,55.68606,21.15637,https://www.stops.lt/klaipeda/index.html#stop/1825,,,1
82,,Dainavos st.,,55.69135,21.17564,https://www.stops.lt/klaipeda/index.html#stop/1703,,,1
4489,,Dainavos st.,,55.69175,21.17561,https://www.stops.lt/klaipeda/index.html#stop/1711,,,1
81,,Turistų st.,,55.68787,21.16392,https://www.stops.lt/klaipeda/index.html#stop/1803,,,1
4490,,Turistų st.,,55.68796,21.16274,https://www.stops.lt/klaipeda/index.html#stop/1821,,,1
190,,Bangų st.,,55.70746,21.14132,https://www.stops.lt/klaipeda/index.html#stop/1203,,,1
191,,Bangų st.,,55.70756,21.14159,https://www.stops.lt/klaipeda/index.html#stop/1204,,,1
3858,,Trinyčių st.,,55.71053,21.14634,https://www.stops.lt/klaipeda/index.html#stop/1413,,,1
3859,,Trinyčių st.,,55.71070,21.14645,https://www.stops.lt/klaipeda/index.html#stop/1414,,,1
7265,,Danės st.,,55.76443,21.19739,https://www.stops.lt/klaipeda/index.html#stop/8984,,,1
8977,,Gilijos st.,,55.75903,21.21410,https://www.stops.lt/klaipeda/index.html#stop/9032,,,1
8978,,Gryneidės st.,,55.75466,21.22228,https://www.stops.lt/klaipeda/index.html#stop/9034,,,1
7249,,Priegliaus st.,,55.76355,21.20752,https://www.stops.lt/klaipeda/index.html#stop/8986,,,1
62,,Darželio st.,,55.68485,21.17978,https://www.stops.lt/klaipeda/index.html#stop/1706,,,1
63,,Darželio st.,,55.68541,21.18143,https://www.stops.lt/klaipeda/index.html#stop/1707,,,1
3717,,Debreceno st.,,55.68085,21.16609,https://www.stops.lt/klaipeda/index.html#stop/1820,,,1
4308,,Debreceno st.,,55.68090,21.16598,https://www.stops.lt/klaipeda/index.html#stop/1819,,,1
60,,Draugystės st.,,55.68267,21.17318,https://www.stops.lt/klaipeda/index.html#stop/1809,,,1
61,,Draugystės st.,,55.68199,21.17087,https://www.stops.lt/klaipeda/index.html#stop/1808,,,1
126,,Medienos st.,,55.72248,21.15677,https://www.stops.lt/klaipeda/index.html#stop/0604,,,1
7214,,Centrinis paplūdimys,,55.76233,21.08871,https://www.stops.lt/klaipeda/index.html#stop/0126,,,1
7215,,Centrinis paplūdimys,,55.76144,21.08888,https://www.stops.lt/klaipeda/index.html#stop/0127,,,1
7201,,Ruonių st.,,55.74847,21.09287,https://www.stops.lt/klaipeda/index.html#stop/0125,,,1
4500,,Žuvėdros st.,,55.77548,21.08341,https://www.stops.lt/klaipeda/index.html#stop/0112,,,1
4501,,Žuvėdros st.,,55.77508,21.08317,https://www.stops.lt/klaipeda/index.html#stop/0113,,,1
113,,Atgimimo st.,,55.71249,21.13110,https://www.stops.lt/klaipeda/index.html#stop/0902,,,1
4224,,Aula Magna st.,,55.72900,21.12365,https://www.stops.lt/klaipeda/index.html#stop/0515,,,1
114,,Bibliotekos st.,,55.71647,21.12868,https://www.stops.lt/klaipeda/index.html#stop/1006,,,1
115,,Bibliotekos st.,,55.71735,21.12794,https://www.stops.lt/klaipeda/index.html#stop/1005,,,1
163,,Universiteto st.,,55.72554,21.12254,https://www.stops.lt/klaipeda/index.html#stop/0508,,,1
164,,Universiteto st.,,55.72541,21.12292,https://www.stops.lt/klaipeda/index.html#stop/0507,,,1
6636,,Ramybės st.,,55.64731,21.27774,https://www.stops.lt/klaipeda/index.html#stop/2928,,,1
5394,,Jaunystės st.,,55.72694,21.17227,https://www.stops.lt/klaipeda/index.html#stop/0721,,,1
7663,,Jaunystės st.,,55.72657,21.17202,https://www.stops.lt/klaipeda/index.html#stop/0723,,,1
5388,,Rūko st.,,55.72363,21.17221,https://www.stops.lt/klaipeda/index.html#stop/0711,,,1
5389,,Rūko st.,,55.72314,21.17234,https://www.stops.lt/klaipeda/index.html#stop/0712,,,1
135,,Joniškės st.,,55.71564,21.16398,https://www.stops.lt/klaipeda/index.html#stop/0706,,,1
182,,Joniškės st.,,55.71594,21.16666,https://www.stops.lt/klaipeda/index.html#stop/0707,,,1
133,,Klemiškės st.,,55.71964,21.16920,https://www.stops.lt/klaipeda/index.html#stop/0704,,,1
134,,Klemiškės st.,,55.71867,21.16916,https://www.stops.lt/klaipeda/index.html#stop/0705,,,1
5423,,Slyvų st.,,55.71227,21.15012,https://www.stops.lt/klaipeda/index.html#stop/1418,,,1
5424,,Slyvų st.,,55.71242,21.15107,https://www.stops.lt/klaipeda/index.html#stop/1419,,,1
136,,Žemaičių st.,,55.71393,21.15543,https://www.stops.lt/klaipeda/index.html#stop/1401,,,1
137,,Žemaičių st.,,55.71408,21.15620,https://www.stops.lt/klaipeda/index.html#stop/1402,,,1
4777,,Jurgaičių st.,,55.75505,21.18290,https://www.stops.lt/klaipeda/index.html#stop/8838,,,1
4778,,Jurgaičių st.,,55.75511,21.18336,https://www.stops.lt/klaipeda/index.html#stop/8839,,,1
4875,,Klipščių st.,,55.75392,21.17954,https://www.stops.lt/klaipeda/index.html#stop/8872,,,1
4876,,Klipščių st.,,55.75395,21.17992,https://www.stops.lt/klaipeda/index.html#stop/8873,,,1
4780,,Mazūriškės st.,,55.75615,21.19078,https://www.stops.lt/klaipeda/index.html#stop/8841,,,1
4821,,Rasytės st.,,55.75656,21.18827,https://www.stops.lt/klaipeda/index.html#stop/8870,,,1
4822,,Rasytės st.,,55.75672,21.18763,https://www.stops.lt/klaipeda/index.html#stop/8869,,,1
4416,,Jūrininkų st.,,55.65991,21.19429,https://www.stops.lt/klaipeda/index.html#stop/2407,,,1
4417,,Jūrininkų st.,,55.66018,21.19640,https://www.stops.lt/klaipeda/index.html#stop/2408,,,1
6926,,Laukininkų st.,,55.65885,21.18963,https://www.stops.lt/klaipeda/index.html#stop/2412,,,1
6927,,Laukininkų st.,,55.65905,21.19127,https://www.stops.lt/klaipeda/index.html#stop/2413,,,1
9824,,Rimkų pervažos st.,,55.66573,21.21243,https://www.stops.lt/klaipeda/index.html#stop/2914,,,1
7225,,Vaidaugų st.,,55.66486,21.21170,https://www.stops.lt/klaipeda/index.html#stop/2420,,,1
7226,,Vaidaugų st.,,55.66339,21.20909,https://www.stops.lt/klaipeda/index.html#stop/2421,,,1
6931,,Draugystės geležinkelio stotis,,55.64458,21.20162,https://www.stops.lt/klaipeda/index.html#stop/2511,,,1
6929,,Kairių st.,,55.64604,21.18670,https://www.stops.lt/klaipeda/index.html#stop/2509,,,1
6930,,Kairių st.,,55.64595,21.18693,https://www.stops.lt/klaipeda/index.html#stop/2510,,,1
4483,,Ąžuolyno st.,,55.69664,21.15883,https://www.stops.lt/klaipeda/index.html#stop/1304,,,1
4488,,Ąžuolyno st.,,55.69770,21.16174,https://www.stops.lt/klaipeda/index.html#stop/1305,,,1
7231,,Kauno st.,,55.69446,21.15428,https://www.stops.lt/klaipeda/index.html#stop/1306,,,1
7232,,Policijos st.,,55.69936,21.16521,https://www.stops.lt/klaipeda/index.html#stop/1307,,,1
7427,,Akmenų st.,,55.75342,21.14967,https://www.stops.lt/klaipeda/index.html#stop/0441,,,1
4499,,Apynių st.,,55.75318,21.14224,https://www.stops.lt/klaipeda/index.html#stop/0433,,,1
7426,,Apynių st.,,55.75303,21.14289,https://www.stops.lt/klaipeda/index.html#stop/0434,,,1
4511,,Jaunimo st.,,55.75114,21.15692,https://www.stops.lt/klaipeda/index.html#stop/0438,,,1
4820,,Jaunimo st.,,55.75154,21.15510,https://www.stops.lt/klaipeda/index.html#stop/0439,,,1
158,,Tauralaukio st.,,55.75283,21.14763,https://www.stops.lt/klaipeda/index.html#stop/0405,,,1
7308,,Karališkių st.,,55.71824,21.18170,https://www.stops.lt/klaipeda/index.html#stop/0715,,,1
9248,,Klausmylių st.,,55.71895,21.18420,https://www.stops.lt/klaipeda/index.html#stop/0727,,,1
9249,,Pilupėnų st.,,55.72001,21.19041,https://www.stops.lt/klaipeda/index.html#stop/0728,,,1
5325,,Saulėlydžio st.,,55.71713,21.17293,https://www.stops.lt/klaipeda/index.html#stop/0718,,,1
154,,Botanikos sodo st.,,55.75015,21.13373,https://www.stops.lt/klaipeda/index.html#stop/0403,,,1
155,,Botanikos sodo st.,,55.75103,21.13367,https://www.stops.lt/klaipeda/index.html#stop/0404,,,1
119,,Kaštonų st.,,55.72414,21.13134,https://www.stops.lt/klaipeda/index.html#stop/0509,,,1
181,,Kaštonų st.,,55.72549,21.13142,https://www.stops.lt/klaipeda/index.html#stop/0510,,,1
3845,,Kino studijos st.,,55.75428,21.13209,https://www.stops.lt/klaipeda/index.html#stop/0419,,,1
4309,,Kino studijos st.,,55.75237,21.13311,https://www.stops.lt/klaipeda/index.html#stop/0421,,,1
142,,Kretingos st.,,55.72852,21.13191,https://www.stops.lt/klaipeda/index.html#stop/0506,,,1
143,,LCC tarptautinis universitetas,,55.72966,21.13214,https://www.stops.lt/klaipeda/index.html#stop/0505,,,1
148,,Mažojo kaimelio st.,,55.73913,21.13428,https://www.stops.lt/klaipeda/index.html#stop/0411,,,1
149,,Mažojo kaimelio st.,,55.73998,21.13483,https://www.stops.lt/klaipeda/index.html#stop/0410,,,1
146,,Panevėžio st.,,55.73504,21.13237,https://www.stops.lt/klaipeda/index.html#stop/0413,,,1
147,,Panevėžio st.,,55.73571,21.13263,https://www.stops.lt/klaipeda/index.html#stop/0412,,,1
152,,Sodų st.,,55.74585,21.13473,https://www.stops.lt/klaipeda/index.html#stop/0407,,,1
153,,Sodų st.,,55.74462,21.13477,https://www.stops.lt/klaipeda/index.html#stop/0406,,,1
144,,Treko st.,,55.73173,21.13217,https://www.stops.lt/klaipeda/index.html#stop/0414,,,1
145,,Treko st.,,55.73245,21.13237,https://www.stops.lt/klaipeda/index.html#stop/0415,,,1
118,,Žiedo st.,,55.72246,21.13063,https://www.stops.lt/klaipeda/index.html#stop/0511,,,1
4391,,Žiedo st.,,55.72285,21.13081,https://www.stops.lt/klaipeda/index.html#stop/0511a,,,1
7434,,Ringos st.,,55.76402,21.19104,https://www.stops.lt/klaipeda/index.html#stop/8798,,,1
4370,,Butigeidžio bataliono st.,,55.74490,21.13024,https://www.stops.lt/klaipeda/index.html#stop/0426,,,1
4371,,Butigeidžio bataliono st.,,55.74662,21.13090,https://www.stops.lt/klaipeda/index.html#stop/0427,,,1
4320,,Dragūnų st.,,55.74994,21.13078,https://www.stops.lt/klaipeda/index.html#stop/0428,,,1
4321,,Dragūnų st.,,55.75058,21.13117,https://www.stops.lt/klaipeda/index.html#stop/0429,,,1
4368,,Girininkijos st.,,55.74090,21.12995,https://www.stops.lt/klaipeda/index.html#stop/0424,,,1
4369,,Girininkijos st.,,55.74210,21.13027,https://www.stops.lt/klaipeda/index.html#stop/0425,,,1
159,,Liepojos st.,,55.73130,21.12486,https://www.stops.lt/klaipeda/index.html#stop/0502,,,1
160,,Liepojos st.,,55.73264,21.12734,https://www.stops.lt/klaipeda/index.html#stop/0501,,,1
157,,Ligoninės st.,,55.75435,21.12889,https://www.stops.lt/klaipeda/index.html#stop/0402,,,1
4388,,Ligoninės st.,,55.75477,21.12963,https://www.stops.lt/klaipeda/index.html#stop/0402a,,,1
5332,,Ligoninės st.,,55.75502,21.13051,https://www.stops.lt/klaipeda/index.html#stop/0451,,,1
7618,,Ligoninės st.,,55.75364,21.13034,https://www.stops.lt/klaipeda/index.html#stop/0452,,,1
7713,,Ligoninės st.,,55.75502,21.13050,https://www.stops.lt/klaipeda/index.html#stop/0451b,,,1
4307,,Onkologijos departamento st.,,55.75786,21.12955,https://www.stops.lt/klaipeda/index.html#stop/0420,,,1
7273,,Onkologijos departamento st.,,55.75747,21.12908,https://www.stops.lt/klaipeda/index.html#stop/0401,,,1
4366,,Vasaros estrados st.,,55.73667,21.12954,https://www.stops.lt/klaipeda/index.html#stop/0422,,,1
4367,,Vasaros estrados st.,,55.73732,21.12985,https://www.stops.lt/klaipeda/index.html#stop/0423,,,1
4482,,Jaunystės st.,,55.72773,21.17328,https://www.stops.lt/klaipeda/index.html#stop/0708,,,1
4278,,Kristijono Donelaičio st.,,55.71363,21.13813,https://www.stops.lt/klaipeda/index.html#stop/0908,,,1
4279,,Kristijono Donelaičio st.,,55.71386,21.13855,https://www.stops.lt/klaipeda/index.html#stop/0907,,,1
3849,,Liepų st.,,55.72328,21.15720,https://www.stops.lt/klaipeda/index.html#stop/0607,,,1
6127,,Liepų st.,,55.72280,21.15707,https://www.stops.lt/klaipeda/index.html#stop/0608,,,1
132,,Paupių st.,,55.72600,21.16557,https://www.stops.lt/klaipeda/index.html#stop/0702,,,1
7644,,Paupių st.,,55.72610,21.16778,https://www.stops.lt/klaipeda/index.html#stop/0730,,,1
3767,,Savivaldybės st.,,55.71228,21.13370,https://www.stops.lt/klaipeda/index.html#stop/0904,,,1
4892,,Savivaldybės st.,,55.71230,21.13411,https://www.stops.lt/klaipeda/index.html#stop/0911,,,1
121,,Skulptūrų parko st.,,55.71612,21.14526,https://www.stops.lt/klaipeda/index.html#stop/0803,,,1
122,,Skulptūrų parko st.,,55.71558,21.14338,https://www.stops.lt/klaipeda/index.html#stop/0804,,,1
123,,Viaduko st.,,55.71805,21.14973,https://www.stops.lt/klaipeda/index.html#stop/0801,,,1
124,,Viaduko st.,,55.71884,21.15185,https://www.stops.lt/klaipeda/index.html#stop/0802,,,1
7555,,Gedminų baterijos st.,,55.67885,21.19162,https://www.stops.lt/klaipeda/index.html#stop/3331,,,1
7551,,Lypkių dvaro st.,,55.68633,21.20417,https://www.stops.lt/klaipeda/index.html#stop/3330,,,1
4785,,Glaudėnų st.,,55.77568,21.13630,https://www.stops.lt/klaipeda/index.html#stop/8846,,,1
4786,,Glaudėnų st.,,55.77507,21.13649,https://www.stops.lt/klaipeda/index.html#stop/8847,,,1
4781,,Kalotės st.,,55.78396,21.13911,https://www.stops.lt/klaipeda/index.html#stop/8842,,,1
4782,,Kalotės st.,,55.78395,21.13946,https://www.stops.lt/klaipeda/index.html#stop/8843,,,1
4783,,Kretingalės st.,,55.77990,21.13816,https://www.stops.lt/klaipeda/index.html#stop/8844,,,1
4784,,Kretingalės st.,,55.78040,21.13876,https://www.stops.lt/klaipeda/index.html#stop/8845,,,1
271,,Labrenciškės st.,,55.76654,21.13143,https://www.stops.lt/klaipeda/index.html#stop/0418,,,1
4699,,Medelyno st.,,55.78840,21.13878,https://www.stops.lt/klaipeda/index.html#stop/7701,,,1
4846,,Medelyno st.,,55.78869,21.13896,https://www.stops.lt/klaipeda/index.html#stop/77773,,,1
270,,Plytinės st.,,55.76755,21.13276,https://www.stops.lt/klaipeda/index.html#stop/0417,,,1
4871,,Šilojų st.,,55.77195,21.13374,https://www.stops.lt/klaipeda/index.html#stop/0448,,,1
4872,,Šilojų st.,,55.77177,21.13421,https://www.stops.lt/klaipeda/index.html#stop/0449,,,1
269,,Skardžio st.,,55.76293,21.13109,https://www.stops.lt/klaipeda/index.html#stop/0416,,,1
4829,,Skardžio st.,,55.76237,21.13003,https://www.stops.lt/klaipeda/index.html#stop/0445,,,1
4532,,Polimerų st.,,55.69122,21.20836,https://www.stops.lt/klaipeda/index.html#stop/3317,,,1
188,,Bijūnų st.,,55.69577,21.13894,https://www.stops.lt/klaipeda/index.html#stop/1103,,,1
189,,Bijūnų st.,,55.69867,21.13656,https://www.stops.lt/klaipeda/index.html#stop/1102,,,1
85,,II perkėlos st.,,55.68868,21.14482,https://www.stops.lt/klaipeda/index.html#stop/1902,,,1
86,,II perkėlos st.,,55.68998,21.14449,https://www.stops.lt/klaipeda/index.html#stop/1901,,,1
56,,Jūreivių st.,,55.67541,21.15467,https://www.stops.lt/klaipeda/index.html#stop/2001,,,1
57,,Jūreivių st.,,55.67532,21.15499,https://www.stops.lt/klaipeda/index.html#stop/2002,,,1
87,,Lakštučių st.,,55.69209,21.14265,https://www.stops.lt/klaipeda/index.html#stop/1105,,,1
187,,Lakštučių st.,,55.69267,21.14235,https://www.stops.lt/klaipeda/index.html#stop/1104,,,1
105,,Nemuno st.,,55.70027,21.13546,https://www.stops.lt/klaipeda/index.html#stop/1101,,,1
14,,Nendrių st.,,55.66136,21.16645,https://www.stops.lt/klaipeda/index.html#stop/2007,,,1
15,,Nendrių st.,,55.66205,21.16625,https://www.stops.lt/klaipeda/index.html#stop/2008,,,1
3853,,Rambyno st.,,55.67161,21.15774,https://www.stops.lt/klaipeda/index.html#stop/2011,,,1
3854,,Rambyno st.,,55.67031,21.15907,https://www.stops.lt/klaipeda/index.html#stop/2010,,,1
83,,Strėvos st.,,55.68322,21.14971,https://www.stops.lt/klaipeda/index.html#stop/1903,,,1
84,,Strėvos st.,,55.68297,21.15033,https://www.stops.lt/klaipeda/index.html#stop/1904,,,1
16,,Upelio st.,,55.66604,21.16250,https://www.stops.lt/klaipeda/index.html#stop/2005,,,1
18,,Upelio st.,,55.66789,21.16123,https://www.stops.lt/klaipeda/index.html#stop/2004,,,1
33,,Budelkiemio st.,,55.66753,21.20149,https://www.stops.lt/klaipeda/index.html#stop/2404,,,1
4316,,Kuncų st.,,55.66785,21.20110,https://www.stops.lt/klaipeda/index.html#stop/2409,,,1
140,,Mokyklos st.,,55.70617,21.15948,https://www.stops.lt/klaipeda/index.html#stop/1405,,,1
4138,,Priestočio st.,,55.71647,21.14868,https://www.stops.lt/klaipeda/index.html#stop/0805,,,1
138,,Verpėjų st.,,55.70907,21.15411,https://www.stops.lt/klaipeda/index.html#stop/1404,,,1
139,,Verpėjų st.,,55.70952,21.15332,https://www.stops.lt/klaipeda/index.html#stop/1403,,,1
3850,,Molo st.,,55.73269,21.09314,https://www.stops.lt/klaipeda/index.html#stop/0210,,,1
3851,,Molo st.,,55.73297,21.09284,https://www.stops.lt/klaipeda/index.html#stop/0211,,,1
170,,Švyturio st.,,55.72893,21.09702,https://www.stops.lt/klaipeda/index.html#stop/0206,,,1
171,,Švyturio st.,,55.72832,21.09807,https://www.stops.lt/klaipeda/index.html#stop/0207,,,1
54,,Juodkrantės st.,,55.67889,21.15660,https://www.stops.lt/klaipeda/index.html#stop/1906,,,1
55,,Juodkrantės st.,,55.67854,21.15402,https://www.stops.lt/klaipeda/index.html#stop/1907,,,1
59,,Naikupės st.,,55.67756,21.14959,https://www.stops.lt/klaipeda/index.html#stop/1905,,,1
4392,,Naikupės st.,,55.67754,21.14899,https://www.stops.lt/klaipeda/index.html#stop/1905a,,,1
5079,,Naujoji st.,,55.77840,21.15276,https://www.stops.lt/klaipeda/index.html#stop/0450,,,1
4498,,Pakrantės st.,,55.77592,21.14621,https://www.stops.lt/klaipeda/index.html#stop/0431,,,1
4497,,Purmalių st.,,55.77472,21.13940,https://www.stops.lt/klaipeda/index.html#stop/0430,,,1
3740,,Naujojo sodo st.,,55.71041,21.12583,https://www.stops.lt/klaipeda/index.html#stop/1216,,,1
106,,Senosios perkėlos st.,,55.70891,21.12793,https://www.stops.lt/klaipeda/index.html#stop/1201,,,1
6787,,Vitės st.,,55.71352,21.12308,https://www.stops.lt/klaipeda/index.html#stop/1011,,,1
4706,,Jurbarko st.,,55.66172,21.15898,https://www.stops.lt/klaipeda/index.html#stop/2014,,,1
4844,,Jurbarko st.,,55.66172,21.15899,https://www.stops.lt/klaipeda/index.html#stop/77774,,,1
4807,,Žūklės st.,,55.66121,21.15572,https://www.stops.lt/klaipeda/index.html#stop/2015,,,1
4808,,Žūklės st.,,55.66126,21.15582,https://www.stops.lt/klaipeda/index.html#stop/2016,,,1
165,,Girulių plento st.,,55.73717,21.09669,https://www.stops.lt/klaipeda/index.html#stop/0203,,,1
161,,P.Lideikio st.,,55.73132,21.12283,https://www.stops.lt/klaipeda/index.html#stop/0504,,,1
162,,P.Lideikio st.,,55.73155,21.12100,https://www.stops.lt/klaipeda/index.html#stop/0503,,,1
4812,,Debesų st.,,55.75363,21.16398,https://www.stops.lt/klaipeda/index.html#stop/0435,,,1
4813,,Debesų st.,,55.75374,21.16233,https://www.stops.lt/klaipeda/index.html#stop/0436,,,1
4852,,Smėlio st.,,55.75359,21.15654,https://www.stops.lt/klaipeda/index.html#stop/0444,,,1
7439,,Smėlio st.,,55.75351,21.15890,https://www.stops.lt/klaipeda/index.html#stop/0471,,,1
4825,,Tauralaukio st.,,55.75256,21.14810,https://www.stops.lt/klaipeda/index.html#stop/0442,,,1
7428,,Tauralaukio st.,,55.75314,21.14819,https://www.stops.lt/klaipeda/index.html#stop/0440,,,1
5238,,Normantų st.,,55.80628,21.11875,https://www.stops.lt/klaipeda/index.html#stop/8901,,,1
4457,,Aukštkiemių st.,,55.76611,21.16121,https://www.stops.lt/klaipeda/index.html#stop/0432,,,1
4277,,Senoji Panevėžio st.,,55.73458,21.14148,https://www.stops.lt/klaipeda/index.html#stop/0409,,,1
5313,,Paribio st.,,55.78699,21.12689,https://www.stops.lt/klaipeda/index.html#stop/8909,,,1
5314,,Paribio st.,,55.78696,21.12664,https://www.stops.lt/klaipeda/index.html#stop/8910,,,1
5229,,Sodų st.,,55.79854,21.12173,https://www.stops.lt/klaipeda/index.html#stop/8892,,,1
5230,,Sodų st.,,55.79874,21.12134,https://www.stops.lt/klaipeda/index.html#stop/8893,,,1
5231,,Zeigių st.,,55.80235,21.11214,https://www.stops.lt/klaipeda/index.html#stop/8894,,,1
5232,,Zeigių st.,,55.80218,21.11220,https://www.stops.lt/klaipeda/index.html#stop/8895,,,1
4464,,Peskojų st.,,55.82332,21.09813,https://www.stops.lt/klaipeda/index.html#stop/8907,,,1
5295,,Peskojų st.,,55.82348,21.09746,https://www.stops.lt/klaipeda/index.html#stop/8908,,,1
6784,,Teatro st.,,55.70727,21.13099,https://www.stops.lt/klaipeda/index.html#stop/1230,,,1
4469,,Karklės st.,,55.81473,21.07102,https://www.stops.lt/klaipeda/index.html#stop/0111,,,1
5296,,Karklės st.,,55.81439,21.07081,https://www.stops.lt/klaipeda/index.html#stop/0121,,,1
4502,,Kukuliškių st.,,55.78170,21.07953,https://www.stops.lt/klaipeda/index.html#stop/0114,,,1
4503,,Kukuliškių st.,,55.78154,21.07942,https://www.stops.lt/klaipeda/index.html#stop/0115,,,1
4504,,Olandų kepurės st.,,55.79548,21.07390,https://www.stops.lt/klaipeda/index.html#stop/0116,,,1
4505,,Olandų kepurės st.,,55.79516,21.07344,https://www.stops.lt/klaipeda/index.html#stop/0117,,,1
4512,,Pajūrio regioninio parko lankytojų centro st.,,55.80839,21.07394,https://www.stops.lt/klaipeda/index.html#stop/0118,,,1
4590,,Pajūrio regioninio parko lankytojų centro st.,,55.80736,21.07436,https://www.stops.lt/klaipeda/index.html#stop/0119,,,1
4441,,Kraštinės st.,,55.67695,21.21512,https://www.stops.lt/klaipeda/index.html#stop/3315,,,1
4442,,Kraštinės st.,,55.67714,21.21571,https://www.stops.lt/klaipeda/index.html#stop/3316,,,1
4430,,LEZo st.,,55.69554,21.19069,https://www.stops.lt/klaipeda/index.html#stop/3302,,,1
4344,,Lypkių st.,,55.68534,21.20618,https://www.stops.lt/klaipeda/index.html#stop/3309,,,1
4445,,Lypkių st.,,55.68489,21.20711,https://www.stops.lt/klaipeda/index.html#stop/3310,,,1
4350,,Metalo st.,,55.68799,21.20340,https://www.stops.lt/klaipeda/index.html#stop/3307,,,1
4352,,Metalo st.,,55.68838,21.20326,https://www.stops.lt/klaipeda/index.html#stop/3308,,,1
4346,,Pramonės st.,,55.69422,21.19664,https://www.stops.lt/klaipeda/index.html#stop/3303,,,1
4349,,Pramonės st.,,55.69464,21.19647,https://www.stops.lt/klaipeda/index.html#stop/3304,,,1
4440,,Šlapžemės st.,,55.67907,21.21306,https://www.stops.lt/klaipeda/index.html#stop/3313,,,1
4443,,Šlapžemės st.,,55.68036,21.21198,https://www.stops.lt/klaipeda/index.html#stop/3314,,,1
4348,,Verslo st.,,55.69110,21.20003,https://www.stops.lt/klaipeda/index.html#stop/3305,,,1
4351,,Verslo st.,,55.69160,21.19972,https://www.stops.lt/klaipeda/index.html#stop/3306,,,1
4891,,Autobusų stotis,,55.72020,21.13804,https://www.stops.lt/klaipeda/index.html#stop/0910,,,1
4125,,Geležinkelio stoties st.,,55.72032,21.13595,https://www.stops.lt/klaipeda/index.html#stop/0906,,,1
4412,,Geležinkelio stoties st.,,55.72078,21.13258,https://www.stops.lt/klaipeda/index.html#stop/0901,,,1
4139,,Priestočio st.,,55.71725,21.14902,https://www.stops.lt/klaipeda/index.html#stop/0806,,,1
9017,,Ragainės st.,,55.73222,21.17432,https://www.stops.lt/klaipeda/index.html#stop/0733,,,1
9018,,Ragainės st.,,55.73216,21.17449,https://www.stops.lt/klaipeda/index.html#stop/0732,,,1
4779,,Mazūriškės st.,,55.75622,21.19074,https://www.stops.lt/klaipeda/index.html#stop/8840,,,1
7264,,Mazūriškių st.,,55.75633,21.19311,https://www.stops.lt/klaipeda/index.html#stop/8811-1,,,1
4317,,Laistų sodų st.,,55.65204,21.23512,https://www.stops.lt/klaipeda/index.html#stop/2912,,,1
4318,,Laistų sodų st.,,55.65261,21.23478,https://www.stops.lt/klaipeda/index.html#stop/2913,,,1
9292,,Lanko st.,,55.66125,21.22394,https://www.stops.lt/klaipeda/index.html#stop/2931,,,1
9293,,Lanko st.,,55.66059,21.22464,https://www.stops.lt/klaipeda/index.html#stop/2932,,,1
195,,Rimkų st.,,55.66406,21.21931,https://www.stops.lt/klaipeda/index.html#stop/2903,,,1
196,,Rimkų st.,,55.66353,21.21992,https://www.stops.lt/klaipeda/index.html#stop/2904,,,1
5321,,Rūko st.,,55.72275,21.17222,https://www.stops.lt/klaipeda/index.html#stop/0710,,,1
5322,,Saulės st.,,55.72118,21.17655,https://www.stops.lt/klaipeda/index.html#stop/0713,,,1
5323,,Saulėtekio st.,,55.71991,21.17926,https://www.stops.lt/klaipeda/index.html#stop/0714,,,1
7135,,Kunkių st.,,55.81389,21.10285,https://www.stops.lt/klaipeda/index.html#stop/8898a,,,1
116,,Lietuvininkų st.,,55.71844,21.12913,https://www.stops.lt/klaipeda/index.html#stop/1004,,,1
117,,Lietuvininkų st.,,55.71866,21.12765,https://www.stops.lt/klaipeda/index.html#stop/1003,,,1
7024,,Malūno tvenkinio st.,,55.70426,21.15096,https://www.stops.lt/klaipeda/index.html#stop/1226,,,1
7073,,Malūno tvenkinio st.,,55.70411,21.15078,https://www.stops.lt/klaipeda/index.html#stop/1227,,,1
96,,Rumpiškės st.,,55.70315,21.14540,https://www.stops.lt/klaipeda/index.html#stop/1211,,,1
98,,Rumpiškės st.,,55.70351,21.14713,https://www.stops.lt/klaipeda/index.html#stop/1212,,,1
9543,,Rumpiškės st.,,55.70322,21.14589,https://www.stops.lt/klaipeda/index.html#stop/1210,,,1
4811,,Signalo st.,,55.70250,21.13895,https://www.stops.lt/klaipeda/index.html#stop/1219,,,1
4257,,Senosios Smiltelės st.,,55.66428,21.15219,https://www.stops.lt/klaipeda/index.html#stop/2012,,,1
4420,,Senosios Smiltelės st.,,55.66416,21.15216,https://www.stops.lt/klaipeda/index.html#stop/2013,,,1
4809,,Smeltės st.,,55.66485,21.15708,https://www.stops.lt/klaipeda/index.html#stop/2017,,,1
4810,,Smeltės st.,,55.66490,21.15690,https://www.stops.lt/klaipeda/index.html#stop/2018,,,1
4824,,Upelio st.,,55.66642,21.16185,https://www.stops.lt/klaipeda/index.html#stop/2019,,,1
4124,,LCC tarptautinis universitetas,,55.72931,21.13111,https://www.stops.lt/klaipeda/index.html#stop/0514,,,1
4122,,Miško st.,,55.73036,21.12695,https://www.stops.lt/klaipeda/index.html#stop/0512,,,1
4123,,Miško st.,,55.73022,21.12639,https://www.stops.lt/klaipeda/index.html#stop/0513,,,1
9022,,Pievų st.,,55.72525,21.14748,https://www.stops.lt/klaipeda/index.html#stop/0520,,,1
9023,,Pievų st.,,55.72565,21.14683,https://www.stops.lt/klaipeda/index.html#stop/0521,,,1
4281,,Prospekto st.,,55.72747,21.13890,https://www.stops.lt/klaipeda/index.html#stop/0516,,,1
4282,,Prospekto st.,,55.72677,21.14086,https://www.stops.lt/klaipeda/index.html#stop/0517,,,1
4280,,Šiaurės st.,,55.72136,21.15329,https://www.stops.lt/klaipeda/index.html#stop/0601,,,1
4306,,Studentų st.,,55.72856,21.13342,https://www.stops.lt/klaipeda/index.html#stop/0518,,,1
7241,,Žaliakelio st.,,55.75262,21.17447,https://www.stops.lt/klaipeda/index.html#stop/8988,,,1
7717,,Žaliakelio st.,,55.75262,21.17447,https://www.stops.lt/klaipeda/index.html#stop/8988b,,,1
75,,Bazės st.,,55.70132,21.16573,https://www.stops.lt/klaipeda/index.html#stop/1410,,,1
76,,Bazės st.,,55.70213,21.16544,https://www.stops.lt/klaipeda/index.html#stop/1409,,,1
71,,Dubysos st.,,55.69462,21.17451,https://www.stops.lt/klaipeda/index.html#stop/1702,,,1
72,,Dubysos st.,,55.69484,21.17491,https://www.stops.lt/klaipeda/index.html#stop/1701,,,1
73,,Klaipėdos energijos st.,,55.69722,21.17093,https://www.stops.lt/klaipeda/index.html#stop/1412,,,1
74,,Klaipėdos energijos st.,,55.69838,21.16992,https://www.stops.lt/klaipeda/index.html#stop/1411,,,1
64,,Mainų st.,,55.68272,21.18523,https://www.stops.lt/klaipeda/index.html#stop/1709,,,1
65,,Mainų st.,,55.68392,21.18502,https://www.stops.lt/klaipeda/index.html#stop/1708,,,1
3852,,Markučių st.,,55.66845,21.20718,https://www.stops.lt/klaipeda/index.html#stop/2902,,,1
69,,Rasos st.,,55.68808,21.18160,https://www.stops.lt/klaipeda/index.html#stop/1705,,,1
70,,Rasos st.,,55.68926,21.18115,https://www.stops.lt/klaipeda/index.html#stop/1704,,,1
4893,,Sendvario st.,,55.70385,21.16300,https://www.stops.lt/klaipeda/index.html#stop/1416,,,1
4894,,Sendvario st.,,55.70370,21.16261,https://www.stops.lt/klaipeda/index.html#stop/1417,,,1
66,,Šiaulių st.,,55.67872,21.18778,https://www.stops.lt/klaipeda/index.html#stop/2202,,,1
67,,Šiaulių st.,,55.67983,21.18765,https://www.stops.lt/klaipeda/index.html#stop/2201,,,1
37,,Švepelių st.,,55.67269,21.19953,https://www.stops.lt/klaipeda/index.html#stop/2216,,,1
3856,,Švepelių st.,,55.67171,21.20083,https://www.stops.lt/klaipeda/index.html#stop/2217,,,1
3797,,Vilniaus st.,,55.69053,21.17937,https://www.stops.lt/klaipeda/index.html#stop/1710,,,1
9722,,Smėlio g.,,55.75494,21.16337,https://www.stops.lt/klaipeda/index.html#stop/0473,,,1
9723,,Smėlio g.,,55.75489,21.16419,https://www.stops.lt/klaipeda/index.html#stop/0474,,,1
9066,,Trušelių st.,,55.75054,21.22707,https://www.stops.lt/klaipeda/index.html#stop/8828-1,,,1
34,,Berželio st.,,55.67139,21.19705,https://www.stops.lt/klaipeda/index.html#stop/2215,,,1
35,,Berželio st.,,55.67115,21.19541,https://www.stops.lt/klaipeda/index.html#stop/2214,,,1
24,,I.Simonaitytės st.,,55.66939,21.18736,https://www.stops.lt/klaipeda/index.html#stop/2212,,,1
25,,I.Simonaitytės st.,,55.66976,21.18967,https://www.stops.lt/klaipeda/index.html#stop/2213,,,1
12,,Minijos st.,,55.66616,21.16375,https://www.stops.lt/klaipeda/index.html#stop/2006,,,1
3835,,Minijos st.,,55.66611,21.16442,https://www.stops.lt/klaipeda/index.html#stop/2009,,,1
19,,Pietinės st.,,55.66597,21.17224,https://www.stops.lt/klaipeda/index.html#stop/2109,,,1
4817,,Pietinės st.,,55.66530,21.17042,https://www.stops.lt/klaipeda/index.html#stop/2114,,,1
20,,Smiltelės st.,,55.66649,21.17527,https://www.stops.lt/klaipeda/index.html#stop/2110,,,1
22,,Volungėlės st.,,55.66814,21.18203,https://www.stops.lt/klaipeda/index.html#stop/2111,,,1
23,,Volungėlės st.,,55.66842,21.18385,https://www.stops.lt/klaipeda/index.html#stop/2211,,,1
5228,,A.Brako st.,,55.79040,21.12495,https://www.stops.lt/klaipeda/index.html#stop/8891,,,1
45,,Gedminų st.,,55.67505,21.18039,https://www.stops.lt/klaipeda/index.html#stop/2204,,,1
46,,Gedminų st.,,55.67450,21.17683,https://www.stops.lt/klaipeda/index.html#stop/2203,,,1
4415,,Šilutės st.,,55.67661,21.18664,https://www.stops.lt/klaipeda/index.html#stop/2206a,,,1
47,,Statybininkų st.,,55.67348,21.17263,https://www.stops.lt/klaipeda/index.html#stop/2105,,,1
3860,,Statybininkų st.,,55.67347,21.17128,https://www.stops.lt/klaipeda/index.html#stop/2112,,,1
49,,Alksnynės st.,,55.67191,21.17018,https://www.stops.lt/klaipeda/index.html#stop/2106,,,1
88,,Arenos st.,,55.68896,21.15588,https://www.stops.lt/klaipeda/index.html#stop/1802,,,1
89,,Arenos st.,,55.69026,21.15511,https://www.stops.lt/klaipeda/index.html#stop/1801,,,1
5135,,Arenos st.,,55.68912,21.15570,https://www.stops.lt/klaipeda/index.html#stop/77772,,,1
6943,,Arenos st.,,55.69013,21.15469,https://www.stops.lt/klaipeda/index.html#stop/1811,,,1
79,,Baltijos st.,,55.68492,21.16005,https://www.stops.lt/klaipeda/index.html#stop/1805,,,1
80,,Baltijos st.,,55.68566,21.16003,https://www.stops.lt/klaipeda/index.html#stop/1804,,,1
8,,Garažų st.,,55.64781,21.18439,https://www.stops.lt/klaipeda/index.html#stop/2503,,,1
9,,Garažų st.,,55.64790,21.18461,https://www.stops.lt/klaipeda/index.html#stop/2504,,,1
90,,Kauno st.,,55.69272,21.15223,https://www.stops.lt/klaipeda/index.html#stop/1303,,,1
91,,Kauno st.,,55.69434,21.15141,https://www.stops.lt/klaipeda/index.html#stop/1302,,,1
52,,Klaipėdos miesto poliklinika,,55.67821,21.16621,https://www.stops.lt/klaipeda/index.html#stop/2102,,,1
53,,Klaipėdos miesto poliklinika,,55.67913,21.16621,https://www.stops.lt/klaipeda/index.html#stop/2101,,,1
8522,,Kurėno st.,,55.66572,21.17462,https://www.stops.lt/klaipeda/index.html#stop/2512,,,1
50,,Naujojo turgaus st.,,55.67479,21.16835,https://www.stops.lt/klaipeda/index.html#stop/2104,,,1
51,,Naujojo turgaus st.,,55.67561,21.16837,https://www.stops.lt/klaipeda/index.html#stop/2103,,,1
7329,,Naujojo turgaus st.,,55.67443,21.16860,https://www.stops.lt/klaipeda/index.html#stop/2115,,,1
78,,Pempininkų st.,,55.68258,21.16322,https://www.stops.lt/klaipeda/index.html#stop/1806,,,1
97,,Sausio 15-osios st.,,55.70208,21.14445,https://www.stops.lt/klaipeda/index.html#stop/1213,,,1
99,,Sausio 15-osios st.,,55.70386,21.14329,https://www.stops.lt/klaipeda/index.html#stop/1209,,,1
3855,,Skibalės st.,,55.66748,21.17292,https://www.stops.lt/klaipeda/index.html#stop/2113,,,1
21,,Smiltelės st.,,55.66678,21.17394,https://www.stops.lt/klaipeda/index.html#stop/2108,,,1
104,,Turgaus st.,,55.70600,21.14077,https://www.stops.lt/klaipeda/index.html#stop/1205,,,1
92,,Vėtrungės st.,,55.69931,21.14723,https://www.stops.lt/klaipeda/index.html#stop/1301,,,1
93,,Vėtrungės st.,,55.69809,21.14783,https://www.stops.lt/klaipeda/index.html#stop/1214,,,1
48,,Žardės st.,,55.67185,21.17076,https://www.stops.lt/klaipeda/index.html#stop/2107,,,1
77,,Žvejų rūmų st.,,55.68200,21.16327,https://www.stops.lt/klaipeda/index.html#stop/1807,,,1
9732,,Gabijos st.,,55.76124,21.14656,https://www.stops.lt/klaipeda/index.html#stop/0483,,,1
9733,,Gabijos st.,,55.76087,21.14643,https://www.stops.lt/klaipeda/index.html#stop/0484,,,1
9734,,Medeinos st.,,55.75983,21.14654,https://www.stops.lt/klaipeda/index.html#stop/0485,,,1
9735,,Medeinos st.,,55.75866,21.14611,https://www.stops.lt/klaipeda/index.html#stop/0486,,,1
9736,,Žemynos st.,,55.75562,21.14385,https://www.stops.lt/klaipeda/index.html#stop/0487,,,1
9737,,Žemynos st.,,55.75542,21.14377,https://www.stops.lt/klaipeda/index.html#stop/0488,,,1
9728,,Tauro 2-oji st.,,55.76099,21.15645,https://www.stops.lt/klaipeda/index.html#stop/0479,,,1
9729,,Tauro 2-oji st.,,55.76119,21.15608,https://www.stops.lt/klaipeda/index.html#stop/0480,,,1
9730,,Tauro 9-oji st.,,55.76281,21.15195,https://www.stops.lt/klaipeda/index.html#stop/0481,,,1
9731,,Tauro 9-oji st.,,55.76294,21.15175,https://www.stops.lt/klaipeda/index.html#stop/0482,,,1
111,,Atgimimo st.,,55.71134,21.13231,https://www.stops.lt/klaipeda/index.html#stop/0903,,,1
4815,,Baltikalnės st.,,55.70521,21.14976,https://www.stops.lt/klaipeda/index.html#stop/1221,,,1
5318,,Jakų žiedo st.,,55.70306,21.19575,https://www.stops.lt/klaipeda/index.html#stop/7754,,,1
5729,,Jakų žiedo st.,,55.70315,21.19477,https://www.stops.lt/klaipeda/index.html#stop/7755,,,1
4814,,Kūlių vartų st.,,55.70639,21.14415,https://www.stops.lt/klaipeda/index.html#stop/1220,,,1
7284,,Sendvario pievų st.,,55.70553,21.17875,https://www.stops.lt/klaipeda/index.html#stop/7756,,,1
7285,,Sendvario pievų st.,,55.70531,21.18044,https://www.stops.lt/klaipeda/index.html#stop/7757,,,1
94,,Tilžės st.,,55.70439,21.15556,https://www.stops.lt/klaipeda/index.html#stop/1408,,,1
95,,Tilžės st.,,55.70497,21.15878,https://www.stops.lt/klaipeda/index.html#stop/1407,,,1
4724,,Tilžės turgaus st.,,55.70560,21.16555,https://www.stops.lt/klaipeda/index.html#stop/1415,,,1
5428,,Tilžės turgaus st.,,55.70585,21.16560,https://www.stops.lt/klaipeda/index.html#stop/1415a,,,1
7418,,Tilžės turgaus st.,,55.70551,21.16713,https://www.stops.lt/klaipeda/index.html#stop/1420,,,1
275,,Kapinių st.,,55.65047,21.26387,https://www.stops.lt/klaipeda/index.html#stop/2906,,,1
3848,,Kapinių st.,,55.65038,21.26427,https://www.stops.lt/klaipeda/index.html#stop/2907,,,1
274,,Lėbartų st.,,55.64832,21.27049,https://www.stops.lt/klaipeda/index.html#stop/2905,,,1
4847,,Lėbartų st.,,55.64782,21.27175,https://www.stops.lt/klaipeda/index.html#stop/2929,,,1
3715,,Vienkiemio st.,,55.65159,21.25082,https://www.stops.lt/klaipeda/index.html#stop/2909,,,1
3716,,Vienkiemio st.,,55.65160,21.25205,https://www.stops.lt/klaipeda/index.html#stop/2910,,,1
9726,,Ringelio st.,,55.75694,21.15574,https://www.stops.lt/klaipeda/index.html#stop/0477,,,1
9727,,Ringelio st.,,55.75696,21.15548,https://www.stops.lt/klaipeda/index.html#stop/0478,,,1
9724,,Vėjo st.,,55.75710,21.16210,https://www.stops.lt/klaipeda/index.html#stop/0475,,,1
9725,,Vėjo st.,,55.75715,21.16179,https://www.stops.lt/klaipeda/index.html#stop/0476,,,1
30,,Bandužių st.,,55.66678,21.19506,https://www.stops.lt/klaipeda/index.html#stop/2219,,,1
31,,Bandužių st.,,55.66792,21.19525,https://www.stops.lt/klaipeda/index.html#stop/2218,,,1
26,,Jūrininkų st.,,55.66168,21.19418,https://www.stops.lt/klaipeda/index.html#stop/2405,,,1
27,,Jūrininkų st.,,55.66114,21.19492,https://www.stops.lt/klaipeda/index.html#stop/2406,,,1
28,,Vyturio st.,,55.66291,21.19338,https://www.stops.lt/klaipeda/index.html#stop/2402,,,1
29,,Vyturio st.,,55.66426,21.19374,https://www.stops.lt/klaipeda/index.html#stop/2401,,,1
7587,,Virkučių st.,,55.75050,21.16366,https://www.stops.lt/klaipeda/index.html#stop/0437,,,1
9721,,Virkučių st.,,55.75073,21.16374,https://www.stops.lt/klaipeda/index.html#stop/0456,,,1
5237,,Dargužių st.,,55.82295,21.10079,https://www.stops.lt/klaipeda/index.html#stop/8905,,,1
5294,,Dargužių st.,,55.82265,21.10084,https://www.stops.lt/klaipeda/index.html#stop/8906,,,1
7144,,Laukų st.,,55.81756,21.10033,https://www.stops.lt/klaipeda/index.html#stop/9007,,,1
7145,,Laukų st.,,55.81754,21.10023,https://www.stops.lt/klaipeda/index.html#stop/9008,,,1
9222,,Rožių st.,,55.63009,21.48956,https://www.stops.lt/klaipeda/index.html#stop/7741,,,2
9223,,Rožių st.,,55.62983,21.49023,https://www.stops.lt/klaipeda/index.html#stop/7742,,,2
9621,,Šukaičiai 2,,55.63920,21.62114,https://www.stops.lt/klaipeda/index.html#stop/9411,,,2
9622,,Šukaičiai 2,,55.63845,21.62053,https://www.stops.lt/klaipeda/index.html#stop/9412,,,2
6994,,1-ieji Leliai,,55.72367,21.22109,https://www.stops.lt/klaipeda/index.html#stop/8970,,,2
6995,,1-ieji Leliai,,55.72450,21.22235,https://www.stops.lt/klaipeda/index.html#stop/8971,,,2
6991,,2-ieji Leliai,,55.73697,21.23533,https://www.stops.lt/klaipeda/index.html#stop/8968,,,2
6992,,2-ieji Leliai,,55.73764,21.23644,https://www.stops.lt/klaipeda/index.html#stop/8969,,,2
7074,,Gastos st.,,55.72977,21.22747,https://www.stops.lt/klaipeda/index.html#stop/9020,,,2
7075,,Gastos st.,,55.72991,21.22807,https://www.stops.lt/klaipeda/index.html#stop/9021,,,2
6996,,Gulbės sodai,,55.72125,21.21692,https://www.stops.lt/klaipeda/index.html#stop/8972,,,2
4627,,Mokyklos st.,,55.79294,21.28671,https://www.stops.lt/klaipeda/index.html#stop/8813,,,2
4628,,Mokyklos st.,,55.79270,21.28640,https://www.stops.lt/klaipeda/index.html#stop/8814,,,2
4631,,Pageidavimų st.,,55.81229,21.29563,https://www.stops.lt/klaipeda/index.html#stop/8815,,,2
4632,,Pageidavimų st.,,55.81246,21.29549,https://www.stops.lt/klaipeda/index.html#stop/8816,,,2
4572,,Plikių st.,,55.78872,21.28283,https://www.stops.lt/klaipeda/index.html#stop/8819,,,2
4629,,Vytaučių st.,,55.79995,21.29188,https://www.stops.lt/klaipeda/index.html#stop/8829,,,2
4630,,Vytaučių st.,,55.80016,21.29174,https://www.stops.lt/klaipeda/index.html#stop/8830,,,2
4625,,Žemgrindžių st.,,55.77190,21.27757,https://www.stops.lt/klaipeda/index.html#stop/8831,,,2
4626,,Žemgrindžių st.,,55.77140,21.27689,https://www.stops.lt/klaipeda/index.html#stop/8832,,,2
4633,,Žvaigždžių st.,,55.81894,21.30202,https://www.stops.lt/klaipeda/index.html#stop/8833,,,2
4634,,Žvaigždžių st.,,55.81859,21.30094,https://www.stops.lt/klaipeda/index.html#stop/8834,,,2
7156,,Aisėnai,,55.58754,21.49482,https://www.stops.lt/klaipeda/index.html#stop/9207,,,2
7160,,Aisėnai,,55.58755,21.49428,https://www.stops.lt/klaipeda/index.html#stop/9208,,,2
7152,,Bobės st.,,55.58589,21.44107,https://www.stops.lt/klaipeda/index.html#stop/9202,,,2
7153,,Bobės st.,,55.58552,21.44241,https://www.stops.lt/klaipeda/index.html#stop/9201,,,2
5505,,Grobštai,,55.61370,21.37914,https://www.stops.lt/klaipeda/index.html#stop/8913,,,2
5506,,Grobštai,,55.61465,21.37878,https://www.stops.lt/klaipeda/index.html#stop/8914,,,2
7157,,Juodupis,,55.59518,21.54701,https://www.stops.lt/klaipeda/index.html#stop/9209,,,2
7161,,Juodupis,,55.59529,21.54576,https://www.stops.lt/klaipeda/index.html#stop/9210,,,2
5286,,Kalvių st.,,55.64073,21.29828,https://www.stops.lt/klaipeda/index.html#stop/8903,,,2
5287,,Kalvių st.,,55.64036,21.29975,https://www.stops.lt/klaipeda/index.html#stop/8904,,,2
4787,,Ketvergių st.,,55.64297,21.29090,https://www.stops.lt/klaipeda/index.html#stop/8848,,,2
4788,,Ketvergių st.,,55.64376,21.28907,https://www.stops.lt/klaipeda/index.html#stop/8849,,,2
5503,,Kisiniai,,55.63337,21.33972,https://www.stops.lt/klaipeda/index.html#stop/8911,,,2
5507,,Kisiniai,,55.63375,21.33901,https://www.stops.lt/klaipeda/index.html#stop/8912,,,2
7155,,Pėžaičiai,,55.58152,21.47967,https://www.stops.lt/klaipeda/index.html#stop/9205,,,2
7159,,Pėžaičiai,,55.58152,21.47878,https://www.stops.lt/klaipeda/index.html#stop/9206,,,2
7158,,Santaros st,,55.58036,21.47059,https://www.stops.lt/klaipeda/index.html#stop/9204,,,2
7154,,Santaros st.,,55.58037,21.47234,https://www.stops.lt/klaipeda/index.html#stop/9203,,,2
4789,,Šernų st.,,55.63897,21.31132,https://www.stops.lt/klaipeda/index.html#stop/8850,,,2
4790,,Šernų st.,,55.63874,21.31236,https://www.stops.lt/klaipeda/index.html#stop/8851,,,2
4978,,Jurjonų st.,,55.65812,21.42874,https://www.stops.lt/klaipeda/index.html#stop/7727,,,2
4982,,Jurjonų st.,,55.65699,21.42944,https://www.stops.lt/klaipeda/index.html#stop/7726,,,2
4984,,Laisvės st.,,55.66230,21.42381,https://www.stops.lt/klaipeda/index.html#stop/7725,,,2
5137,,Medsėdžių st.,,55.65047,21.43807,https://www.stops.lt/klaipeda/index.html#stop/7738,,,2
5138,,Medsėdžių st.,,55.64949,21.43853,https://www.stops.lt/klaipeda/index.html#stop/7739,,,2
5509,,Poškai,,55.59613,21.40875,https://www.stops.lt/klaipeda/index.html#stop/8915,,,2
4673,,Beržyno st.,,55.78000,21.20501,https://www.stops.lt/klaipeda/index.html#stop/8803,,,2
4674,,Beržyno st.,,55.77964,21.20443,https://www.stops.lt/klaipeda/index.html#stop/8804,,,2
4574,,Radailių st.,,55.78669,21.21542,https://www.stops.lt/klaipeda/index.html#stop/8821,,,2
4575,,Radailių st.,,55.78714,21.21544,https://www.stops.lt/klaipeda/index.html#stop/8822,,,2
4577,,Šimkų st.,,55.80480,21.22528,https://www.stops.lt/klaipeda/index.html#stop/8826,,,2
4953,,Stonės st.,,55.77158,21.19687,https://www.stops.lt/klaipeda/index.html#stop/8876,,,2
4954,,Stonės st.,,55.77258,21.19789,https://www.stops.lt/klaipeda/index.html#stop/8877,,,2
7059,,Urbikių st.,,55.79477,21.22078,https://www.stops.lt/klaipeda/index.html#stop/8989,,,2
7060,,Urbikių st.,,55.79480,21.22108,https://www.stops.lt/klaipeda/index.html#stop/8990,,,2
8137,,Genių st.,,55.78053,21.30006,https://www.stops.lt/klaipeda/index.html#stop/9080,,,2
9081,,Gervių st.,,55.78617,21.29336,https://www.stops.lt/klaipeda/index.html#stop/9081,,,2
5143,,Baičių st.,,55.66658,21.37472,https://www.stops.lt/klaipeda/index.html#stop/8882,,,2
5145,,Baičių st.,,55.66670,21.37539,https://www.stops.lt/klaipeda/index.html#stop/8883,,,2
5139,,Kisinių st.,,55.63478,21.34048,https://www.stops.lt/klaipeda/index.html#stop/8878,,,2
5140,,Kisinių st.,,55.63497,21.34124,https://www.stops.lt/klaipeda/index.html#stop/8879,,,2
4988,,Laisvės st.,,55.66299,21.42283,https://www.stops.lt/klaipeda/index.html#stop/7724,,,2
4983,,Šnaukštų karjerų st.,,55.66331,21.40514,https://www.stops.lt/klaipeda/index.html#stop/8884,,,2
4985,,Šnaukštų karjerų st.,,55.66259,21.40568,https://www.stops.lt/klaipeda/index.html#stop/7721,,,2
5141,,Stučių st.,,55.64766,21.37124,https://www.stops.lt/klaipeda/index.html#stop/8880,,,2
5142,,Stučių st.,,55.64820,21.37154,https://www.stops.lt/klaipeda/index.html#stop/8881,,,2
5067,,Ąžuolyno st.,,55.68818,21.24790,https://www.stops.lt/klaipeda/index.html#stop/7706,,,2
5068,,Ąžuolyno st.,,55.68827,21.24923,https://www.stops.lt/klaipeda/index.html#stop/7707,,,2
4966,,Dujų stoties st.,,55.68893,21.25717,https://www.stops.lt/klaipeda/index.html#stop/7708,,,2
4969,,Dujų stoties st.,,55.68865,21.25933,https://www.stops.lt/klaipeda/index.html#stop/7709,,,2
4972,,Galčių st.,,55.68008,21.32166,https://www.stops.lt/klaipeda/index.html#stop/7712,,,2
4976,,Galčių st.,,55.67960,21.32382,https://www.stops.lt/klaipeda/index.html#stop/7713,,,2
4962,,Jakų st.,,55.69616,21.21644,https://www.stops.lt/klaipeda/index.html#stop/7702,,,2
4963,,Jakų st.,,55.69571,21.21703,https://www.stops.lt/klaipeda/index.html#stop/7703,,,2
4970,,Kiškėnų st.,,55.68409,21.28863,https://www.stops.lt/klaipeda/index.html#stop/7710,,,2
4971,,Kiškėnų st.,,55.68364,21.29094,https://www.stops.lt/klaipeda/index.html#stop/7711,,,2
4986,,Agluonos st.,,55.66328,21.41971,https://www.stops.lt/klaipeda/index.html#stop/7722,,,2
4987,,Agluonos st.,,55.66307,21.41968,https://www.stops.lt/klaipeda/index.html#stop/7723,,,2
4967,,Aisės st.,,55.63581,21.47958,https://www.stops.lt/klaipeda/index.html#stop/7730,,,2
4991,,Aisės st.,,55.63575,21.47959,https://www.stops.lt/klaipeda/index.html#stop/7731,,,2
4992,,Beržų st.,,55.63220,21.48646,https://www.stops.lt/klaipeda/index.html#stop/7732,,,2
4993,,Beržų st.,,55.63218,21.48636,https://www.stops.lt/klaipeda/index.html#stop/7733,,,2
4994,,Valdybos st.,,55.62784,21.49496,https://www.stops.lt/klaipeda/index.html#stop/7734,,,2
6745,,Alyvų st.,,55.80340,21.37998,https://www.stops.lt/klaipeda/index.html#stop/8994,,,2
4555,,Linų st.,,55.80848,21.38376,https://www.stops.lt/klaipeda/index.html#stop/8995,,,2
4554,,Sniegenų st.,,55.79923,21.37675,https://www.stops.lt/klaipeda/index.html#stop/8993,,,2
9447,,A.Bruožio st.,,55.73706,21.21098,https://www.stops.lt/klaipeda/index.html#stop/8792,,,2
9446,,Ylavos st.,,55.73718,21.21937,https://www.stops.lt/klaipeda/index.html#stop/8791,,,2
9448,,Smalupės st.,,55.73696,21.20340,https://www.stops.lt/klaipeda/index.html#stop/8793,,,2
9444,,Žalgirių st.,,55.73729,21.22750,https://www.stops.lt/klaipeda/index.html#stop/8790,,,2
4613,,Gindulių st.,,55.73391,21.18929,https://www.stops.lt/klaipeda/index.html#stop/8805,,,2
4614,,Gindulių st.,,55.73417,21.18941,https://www.stops.lt/klaipeda/index.html#stop/8806,,,2
9652,,Pavandenės st.,,55.74866,21.19248,https://www.stops.lt/klaipeda/index.html#stop/8888,,,2
9653,,Pavandenės st.,,55.74792,21.19228,https://www.stops.lt/klaipeda/index.html#stop/8889,,,2
4552,,Gėlių st.,,55.81035,21.37543,https://www.stops.lt/klaipeda/index.html#stop/8996,,,2
6997,,1-oji Klemiškė,,55.72344,21.20389,https://www.stops.lt/klaipeda/index.html#stop/8974,,,2
6998,,1-oji Klemiškė,,55.72325,21.20372,https://www.stops.lt/klaipeda/index.html#stop/8975,,,2
4977,,Dovilų st.,,55.67672,21.36053,https://www.stops.lt/klaipeda/index.html#stop/7717,,,2
4979,,Dovilų st.,,55.67683,21.36053,https://www.stops.lt/klaipeda/index.html#stop/7716,,,2
5069,,Lankiškės st.,,55.67681,21.34889,https://www.stops.lt/klaipeda/index.html#stop/7714,,,2
5070,,Lankiškės st.,,55.67680,21.34946,https://www.stops.lt/klaipeda/index.html#stop/7715,,,2
6855,,Gribžiniai,,55.77316,21.37786,https://www.stops.lt/klaipeda/index.html#stop/9011,,,2
6856,,Gribžiniai,,55.77517,21.37798,https://www.stops.lt/klaipeda/index.html#stop/9012,,,2
6906,,Saulažolių 2-oji,,55.73791,21.38124,https://www.stops.lt/klaipeda/index.html#stop/9015,,,2
6908,,Saulažolių 2-oji,,55.73736,21.38121,https://www.stops.lt/klaipeda/index.html#stop/9016,,,2
6852,,Vaiteliai,,55.79324,21.37646,https://www.stops.lt/klaipeda/index.html#stop/9010,,,2
4553,,Lelijų st.,,55.80811,21.36794,https://www.stops.lt/klaipeda/index.html#stop/8997,,,2
4968,,Lieknos st.,,55.63642,21.44618,https://www.stops.lt/klaipeda/index.html#stop/7729,,,2
4973,,Lieknos st.,,55.63646,21.44613,https://www.stops.lt/klaipeda/index.html#stop/7728,,,2
7054,,Aitvarų st.,,55.73236,21.19172,https://www.stops.lt/klaipeda/index.html#stop/8978,,,2
7056,,Aitvarų st.,,55.73233,21.19171,https://www.stops.lt/klaipeda/index.html#stop/8979,,,2
7057,,Jazminų st.,,55.72489,21.19997,https://www.stops.lt/klaipeda/index.html#stop/8982,,,2
7058,,Jazminų st.,,55.72484,21.19988,https://www.stops.lt/klaipeda/index.html#stop/8983,,,2
6999,,Žiedų st.,,55.72881,21.19556,https://www.stops.lt/klaipeda/index.html#stop/8976,,,2
7000,,Žiedų st.,,55.72874,21.19546,https://www.stops.lt/klaipeda/index.html#stop/8977,,,2
6772,,Tolupis,,55.69293,21.28719,https://www.stops.lt/klaipeda/index.html#stop/9001,,,2
6773,,Tolupis,,55.69290,21.28714,https://www.stops.lt/klaipeda/index.html#stop/9002,,,2
4426,,Ermitažas; Promo,,55.71154,21.19930,https://www.stops.lt/klaipeda/index.html#stop/3401,,,2
6821,,Dituvos turgaus st.,,55.57850,21.27383,https://www.stops.lt/klaipeda/index.html#stop/8953,,,2
6826,,Karpių st.,,55.59354,21.24925,https://www.stops.lt/klaipeda/index.html#stop/8957,,,2
6825,,Laivų st.,,55.59101,21.25492,https://www.stops.lt/klaipeda/index.html#stop/8956,,,2
6823,,Pavasario st.,,55.58564,21.26292,https://www.stops.lt/klaipeda/index.html#stop/8955,,,2
6822,,Žaibų st.,,55.58239,21.26789,https://www.stops.lt/klaipeda/index.html#stop/8954,,,2
5511,,Poškai,,55.59659,21.40983,https://www.stops.lt/klaipeda/index.html#stop/8916,,,2
4671,,Lenkviečių st.,,55.76488,21.19638,https://www.stops.lt/klaipeda/index.html#stop/8809,,,2
4672,,Lenkviečių st.,,55.76364,21.19618,https://www.stops.lt/klaipeda/index.html#stop/8810,,,2
4669,,Mazūriškių st.,,55.75633,21.19311,https://www.stops.lt/klaipeda/index.html#stop/8811,,,2
4670,,Mazūriškių st.,,55.75533,21.19256,https://www.stops.lt/klaipeda/index.html#stop/8812,,,2
4791,,Rokų st.,,55.62681,21.31291,https://www.stops.lt/klaipeda/index.html#stop/8852,,,2
4792,,Rokų st.,,55.62686,21.31283,https://www.stops.lt/klaipeda/index.html#stop/8853,,,2
4877,,Baltojo akmens st.,,55.61692,21.32958,https://www.stops.lt/klaipeda/index.html#stop/8874,,,2
4878,,Baltojo akmens st.,,55.61701,21.32949,https://www.stops.lt/klaipeda/index.html#stop/8875,,,2
4801,,Bokštų st.,,55.61828,21.32650,https://www.stops.lt/klaipeda/index.html#stop/8862,,,2
4802,,Bokštų st.,,55.61830,21.32658,https://www.stops.lt/klaipeda/index.html#stop/8863,,,2
4803,,Gandrų st.,,55.62253,21.32521,https://www.stops.lt/klaipeda/index.html#stop/8865,,,2
4804,,Gandrų st.,,55.62258,21.32520,https://www.stops.lt/klaipeda/index.html#stop/8866,,,2
4799,,Lakštingalų st.,,55.62066,21.32843,https://www.stops.lt/klaipeda/index.html#stop/8860,,,2
4800,,Lakštingalų st.,,55.62076,21.32892,https://www.stops.lt/klaipeda/index.html#stop/8861,,,2
4797,,Pastogės st.,,55.62452,21.32114,https://www.stops.lt/klaipeda/index.html#stop/8858,,,2
4798,,Pastogės st.,,55.62457,21.32118,https://www.stops.lt/klaipeda/index.html#stop/8859,,,2
4795,,Pastotės st.,,55.62098,21.31905,https://www.stops.lt/klaipeda/index.html#stop/8856,,,2
4796,,Pastotės st.,,55.62092,21.31910,https://www.stops.lt/klaipeda/index.html#stop/8857,,,2
4729,,Žibintų st.,,55.61607,21.33375,https://www.stops.lt/klaipeda/index.html#stop/8864,,,2
5223,,Zylių st.,,55.61879,21.32457,https://www.stops.lt/klaipeda/index.html#stop/8886,,,2
5224,,Zylių st.,,55.61878,21.32444,https://www.stops.lt/klaipeda/index.html#stop/8887,,,2
4793,,Žvejų st.,,55.62358,21.31615,https://www.stops.lt/klaipeda/index.html#stop/8854,,,2
4794,,Žvejų st.,,55.62364,21.31615,https://www.stops.lt/klaipeda/index.html#stop/8855,,,2
4617,,Slengių st.,,55.74039,21.20384,https://www.stops.lt/klaipeda/index.html#stop/8823,,,2
4618,,Slengių st.,,55.73997,21.20263,https://www.stops.lt/klaipeda/index.html#stop/8824,,,2
4621,,Trušelių st.,,55.75080,21.22793,https://www.stops.lt/klaipeda/index.html#stop/8827,,,2
4622,,Trušelių st.,,55.75054,21.22707,https://www.stops.lt/klaipeda/index.html#stop/8828,,,2
4756,,Eketės st.,,55.79860,21.19991,https://www.stops.lt/klaipeda/index.html#stop/8835,,,2
7210,,Sodų st.,,55.91391,21.08256,https://www.stops.lt/klaipeda/index.html#stop/9991,,,3
5144,,Jokūbavas,,55.82948,21.34361,https://www.stops.lt/klaipeda/index.html#stop/8885,,,3
6746,,Šašaičiai,,55.81366,21.35938,https://www.stops.lt/klaipeda/index.html#stop/8992,,,3
6747,,Šašaičiai,,55.81316,21.35962,https://www.stops.lt/klaipeda/index.html#stop/8991,,,3
6903,,Rasa 1,,55.83551,21.37961,https://www.stops.lt/klaipeda/index.html#stop/8999,,,3
7601,,Bruzdeilynas,,55.84842,21.11222,https://www.stops.lt/klaipeda/index.html#stop/9981,,,3
7602,,Bruzdeilynas,,55.84769,21.11208,https://www.stops.lt/klaipeda/index.html#stop/9980,,,3
7599,,Bruzdeilynas,,55.84317,21.11808,https://www.stops.lt/klaipeda/index.html#stop/9983,,,3
7600,,Bruzdeilynas,,55.84183,21.11865,https://www.stops.lt/klaipeda/index.html#stop/9982,,,3
7597,,Dargužiai,,55.82511,21.12381,https://www.stops.lt/klaipeda/index.html#stop/9985,,,3
7598,,Dargužiai,,55.82725,21.12228,https://www.stops.lt/klaipeda/index.html#stop/9984,,,3
7211,,Graudūšiai,,55.85866,21.09827,https://www.stops.lt/klaipeda/index.html#stop/9988,,,3
7212,,Graudūšiai,,55.85723,21.09953,https://www.stops.lt/klaipeda/index.html#stop/9989,,,3
7595,,Kopūstai,,55.81381,21.12781,https://www.stops.lt/klaipeda/index.html#stop/9987,,,3
7596,,Kopūstai,,55.81200,21.12764,https://www.stops.lt/klaipeda/index.html#stop/9986,,,3
4557,,Rasa,,55.83715,21.39111,https://www.stops.lt/klaipeda/index.html#stop/8998,,,3
125,,Autobusų parko st.,,55.72077,21.15961,https://www.stops.lt/klaipeda/index.html#stop/0605,,,1
4411,,Autobusų parko st.,,55.72097,21.15942,https://www.stops.lt/klaipeda/index.html#stop/0605a,,,1
272,,Medienos st.,,55.72198,21.15775,https://www.stops.lt/klaipeda/index.html#stop/0606,,,1
5052,,Lūžų st.,,55.66168,21.20320,https://www.stops.lt/klaipeda/index.html#stop/7736,,,1
5053,,Lūžų st.,,55.66148,21.20164,https://www.stops.lt/klaipeda/index.html#stop/7737,,,1
32,,Budelkiemio st.,,55.66490,21.20018,https://www.stops.lt/klaipeda/index.html#stop/2403,,,1
194,,Mogiliovo st.,,55.66225,21.20160,https://www.stops.lt/klaipeda/index.html#stop/2410,,,1
3718,,Mogiliovo st.,,55.66304,21.20123,https://www.stops.lt/klaipeda/index.html#stop/2411,,,1
4623,,Baukštininkų st.,,55.75776,21.26264,https://www.stops.lt/klaipeda/index.html#stop/8801,,,2
4624,,Baukštininkų st.,,55.75710,21.26155,https://www.stops.lt/klaipeda/index.html#stop/8802,,,2
6982,,Baukštininkų st.,,55.75663,21.26380,https://www.stops.lt/klaipeda/index.html#stop/8960,,,2
6983,,Baukštininkų st.,,55.75678,21.26272,https://www.stops.lt/klaipeda/index.html#stop/8961,,,2
7052,,Gumbinės st.,,55.75599,21.27489,https://www.stops.lt/klaipeda/index.html#stop/8980,,,2
7053,,Gumbinės st.,,55.75610,21.27474,https://www.stops.lt/klaipeda/index.html#stop/8981,,,2
6990,,Didieji Leliai,,55.74453,21.25256,https://www.stops.lt/klaipeda/index.html#stop/8966,,,2
6698,,Dituvos bibliotekos st.,,55.58984,21.24409,https://www.stops.lt/klaipeda/index.html#stop/8949,,,2
6699,,Dituvos bibliotekos st.,,55.58971,21.24397,https://www.stops.lt/klaipeda/index.html#stop/8950,,,2
6827,,Ievų st.,,55.59314,21.24403,https://www.stops.lt/klaipeda/index.html#stop/8958,,,2
6828,,Ievų st.,,55.59334,21.24414,https://www.stops.lt/klaipeda/index.html#stop/8959,,,2
6691,,Nidos g.,,55.57295,21.26219,https://www.stops.lt/klaipeda/index.html#stop/8941,,,2
6692,,Nidos g.,,55.57318,21.26165,https://www.stops.lt/klaipeda/index.html#stop/8942,,,2
6689,,Pervalkos g.,,55.58007,21.25143,https://www.stops.lt/klaipeda/index.html#stop/8945,,,2
6695,,Pervalkos g.,,55.57975,21.25174,https://www.stops.lt/klaipeda/index.html#stop/8946,,,2
6696,,Pienių st.,,55.58284,21.24725,https://www.stops.lt/klaipeda/index.html#stop/8947,,,2
6697,,Pienių st.,,55.58283,21.24708,https://www.stops.lt/klaipeda/index.html#stop/8948,,,2
6693,,Preilos g.,,55.57650,21.25680,https://www.stops.lt/klaipeda/index.html#stop/8943,,,2
6694,,Preilos g.,,55.57670,21.25632,https://www.stops.lt/klaipeda/index.html#stop/8944,,,2
6700,,Vaškių st.,,55.59589,21.24390,https://www.stops.lt/klaipeda/index.html#stop/8951,,,2
6688,,Žemuogių st.,,55.56780,21.27004,https://www.stops.lt/klaipeda/index.html#stop/8939,,,2
6690,,Žemuogių st.,,55.56812,21.26934,https://www.stops.lt/klaipeda/index.html#stop/8940,,,2
6686,,Karvaičių st.,,55.57007,21.27546,https://www.stops.lt/klaipeda/index.html#stop/8937,,,2
6687,,Karvaičių st.,,55.56960,21.27472,https://www.stops.lt/klaipeda/index.html#stop/8938,,,2
6682,,Dituvos darželio st.,,55.57770,21.27487,https://www.stops.lt/klaipeda/index.html#stop/8933,,,2
6683,,Dituvos darželio st.,,55.57733,21.27551,https://www.stops.lt/klaipeda/index.html#stop/8934,,,2
6684,,Gintaro st.,,55.57401,21.28041,https://www.stops.lt/klaipeda/index.html#stop/8935,,,2
6685,,Gintaro st.,,55.57458,21.27972,https://www.stops.lt/klaipeda/index.html#stop/8936,,,2
6680,,Gubojų st.,,55.58116,21.28273,https://www.stops.lt/klaipeda/index.html#stop/8931,,,2
6681,,Gubojų st.,,55.58087,21.28236,https://www.stops.lt/klaipeda/index.html#stop/8932,,,2
6670,,Dumpiai,,55.63708,21.24985,https://www.stops.lt/klaipeda/index.html#stop/8921,,,2
6671,,Dumpiai,,55.63870,21.24888,https://www.stops.lt/klaipeda/index.html#stop/8922,,,2
40,,Vingio st.,,55.67475,21.19423,https://www.stops.lt/klaipeda/index.html#stop/2208,,,1
41,,Vingio st.,,55.67576,21.19289,https://www.stops.lt/klaipeda/index.html#stop/2207,,,1
43,,Šilutės st.,,55.67673,21.18712,https://www.stops.lt/klaipeda/index.html#stop/2206,,,1
44,,Šilutės st.,,55.67654,21.18542,https://www.stops.lt/klaipeda/index.html#stop/2205,,,1
42,,Pasažo st.,,55.67281,21.19167,https://www.stops.lt/klaipeda/index.html#stop/2209,,,1
193,,Pasažo st.,,55.67330,21.19213,https://www.stops.lt/klaipeda/index.html#stop/2210,,,1
175,,2-osios Melnragės st.,,55.75793,21.08950,https://www.stops.lt/klaipeda/index.html#stop/0105,,,1
176,,2-osios Melnragės st.,,55.75936,21.08986,https://www.stops.lt/klaipeda/index.html#stop/0104,,,1
4209,,Giruliai,,55.77122,21.08378,https://www.stops.lt/klaipeda/index.html#stop/0110,,,1
4409,,Giruliai,,55.77061,21.08374,https://www.stops.lt/klaipeda/index.html#stop/0110a,,,1
174,,Kopų st.,,55.74288,21.09493,https://www.stops.lt/klaipeda/index.html#stop/0106,,,1
3819,,Kopų st.,,55.74137,21.09493,https://www.stops.lt/klaipeda/index.html#stop/0107,,,1
177,,Pajūrio st.,,55.76513,21.08737,https://www.stops.lt/klaipeda/index.html#stop/0103,,,1
178,,Pajūrio st.,,55.76569,21.08716,https://www.stops.lt/klaipeda/index.html#stop/0102,,,1
7200,,Ruonių st.,,55.74965,21.09251,https://www.stops.lt/klaipeda/index.html#stop/0124,,,1
3820,,Šlaito st.,,55.76885,21.08946,https://www.stops.lt/klaipeda/index.html#stop/0108,,,1
3821,,Šlaito st.,,55.76819,21.08973,https://www.stops.lt/klaipeda/index.html#stop/0109,,,1
179,,Girulių st.,,55.76924,21.09485,https://www.stops.lt/klaipeda/index.html#stop/0101,,,1
4408,,Girulių st.,,55.76920,21.09478,https://www.stops.lt/klaipeda/index.html#stop/0101a,,,1
7518,,Gručeikių sodai,,55.62571,21.23969,https://www.stops.lt/klaipeda/index.html#stop/9043,,,2
7516,,Ulonų st.,,55.63319,21.24237,https://www.stops.lt/klaipeda/index.html#stop/9042,,,2
7517,,Ulonų st.,,55.63311,21.24216,https://www.stops.lt/klaipeda/index.html#stop/9041,,,2
7519,,Gručeikių sodai,,55.62554,21.23962,https://www.stops.lt/klaipeda/index.html#stop/9044,,,2
7496,,Spengių sodai,,55.62486,21.22661,https://www.stops.lt/klaipeda/index.html#stop/9045,,,2
4830,,Jakų mokykla,,55.70028,21.22266,https://www.stops.lt/klaipeda/index.html#stop/7799,,,1
9473,,Bajorų st.,,55.69715,21.22133,https://www.stops.lt/klaipeda/index.html#stop/7766,,,1
9472,,Mėtų st.,,55.69550,21.22436,https://www.stops.lt/klaipeda/index.html#stop/7765,,,1
5118,,Pašto st.,,55.69938,21.21756,https://www.stops.lt/klaipeda/index.html#stop/7751,,,1
9283,,Jakų st.,,55.69738,21.21721,https://www.stops.lt/klaipeda/index.html#stop/7750-1,,,2
9285,,Pašto st.,,55.69938,21.21756,https://www.stops.lt/klaipeda/index.html#stop/7751-1,,,2
9308,,Dobilas,,55.68934,21.38347,https://www.stops.lt/klaipeda/index.html#stop/9605,,,2
9309,,Dobilas,,55.69080,21.38553,https://www.stops.lt/klaipeda/index.html#stop/9604,,,2
8967,,Kryžkelė,,55.55266,21.65246,https://www.stops.lt/klaipeda/index.html#stop/9217,,,2
9307,,Kulių dvaro st.,,55.69383,21.38920,https://www.stops.lt/klaipeda/index.html#stop/9606,,,2
9311,,Obelėlė,,55.68887,21.38286,https://www.stops.lt/klaipeda/index.html#stop/9603,,,2
9312,,Vandens st.,,55.68453,21.37719,https://www.stops.lt/klaipeda/index.html#stop/9602,,,2
9669,,Vandens st.,,55.68413,21.37650,https://www.stops.lt/klaipeda/index.html#stop/9601,,,2
9305,,Vilnelės st.,,55.70169,21.39310,https://www.stops.lt/klaipeda/index.html#stop/9608,,,2
9306,,Vilnelės st.,,55.70183,21.39328,https://www.stops.lt/klaipeda/index.html#stop/9607,,,2
8157,,Šilininkai,,55.53657,21.37073,https://www.stops.lt/klaipeda/index.html#stop/9497,,,2
8186,,Šilininkai,,55.53733,21.36954,https://www.stops.lt/klaipeda/index.html#stop/9498,,,2
8034,,Šukaičiai,,55.63167,21.61684,https://www.stops.lt/klaipeda/index.html#stop/9414,,,2
8586,,Šukaičiai,,55.63201,21.61732,https://www.stops.lt/klaipeda/index.html#stop/9413,,,2
7883,,Stragnai,,55.54847,21.33498,https://www.stops.lt/klaipeda/index.html#stop/9098,,,2
7884,,Stragnai,,55.54859,21.33402,https://www.stops.lt/klaipeda/index.html#stop/9097,,,2
8068,,Kalniškė,,55.70757,21.42176,https://www.stops.lt/klaipeda/index.html#stop/9345,,,2
8974,,Kalniškė,,55.70722,21.42179,https://www.stops.lt/klaipeda/index.html#stop/9346,,,2
8010,,Būdviečiai,,55.57157,21.37421,https://www.stops.lt/klaipeda/index.html#stop/9091,,,2
8025,,Būdviečiai,,55.57091,21.37340,https://www.stops.lt/klaipeda/index.html#stop/9092,,,2
8013,,Griežiai,,55.56398,21.36906,https://www.stops.lt/klaipeda/index.html#stop/9093,,,2
8984,,Griežiai,,55.56341,21.36838,https://www.stops.lt/klaipeda/index.html#stop/9094,,,2
7885,,Šaukliai,,55.55388,21.36334,https://www.stops.lt/klaipeda/index.html#stop/9096,,,2
7886,,Šaukliai,,55.55453,21.36390,https://www.stops.lt/klaipeda/index.html#stop/9095,,,2
8994,,Genių st.,,55.77905,21.30162,https://www.stops.lt/klaipeda/index.html#stop/9079,,,2
7994,,Auksoras,,55.66909,21.73881,https://www.stops.lt/klaipeda/index.html#stop/9383,,,2
8585,,Auksoras,,55.66967,21.73975,https://www.stops.lt/klaipeda/index.html#stop/9384,,,2
8093,,Girininkai,,55.59547,21.81316,https://www.stops.lt/klaipeda/index.html#stop/9392,,,2
8601,,Girininkai,,55.59500,21.81351,https://www.stops.lt/klaipeda/index.html#stop/9391,,,2
7991,,Lelėnai,,55.62868,21.77886,https://www.stops.lt/klaipeda/index.html#stop/9387,,,2
9375,,Lelėnai,,55.62946,21.77957,https://www.stops.lt/klaipeda/index.html#stop/9388,,,2
8163,,Šakėnai,,55.60561,21.79980,https://www.stops.lt/klaipeda/index.html#stop/9389,,,2
8602,,Šakėnai,,55.60582,21.79946,https://www.stops.lt/klaipeda/index.html#stop/9390,,,2
8551,,Stančaičiai,,55.64976,21.75618,https://www.stops.lt/klaipeda/index.html#stop/9386,,,2
8596,,Stančaičiai,,55.64969,21.75682,https://www.stops.lt/klaipeda/index.html#stop/9385,,,2
7996,,Landžiai,,55.59596,21.70182,https://www.stops.lt/klaipeda/index.html#stop/9422,,,2
9376,,Landžiai,,55.59630,21.70304,https://www.stops.lt/klaipeda/index.html#stop/9421,,,2
7990,,Mataičiai,,55.61286,21.71633,https://www.stops.lt/klaipeda/index.html#stop/9423,,,2
8041,,Balsėnai,,55.60619,21.67238,https://www.stops.lt/klaipeda/index.html#stop/9417,,,2
8076,,Balsėnai,,55.60638,21.67038,https://www.stops.lt/klaipeda/index.html#stop/9418,,,2
8997,,Landžiai,,55.59543,21.70200,https://www.stops.lt/klaipeda/index.html#stop/9420,,,2
8998,,Landžiai,,55.59573,21.70057,https://www.stops.lt/klaipeda/index.html#stop/9419,,,2
8077,,Misgiriai,,55.58844,21.75250,https://www.stops.lt/klaipeda/index.html#stop/9425,,,2
8600,,Misgiriai,,55.58847,21.75183,https://www.stops.lt/klaipeda/index.html#stop/9426,,,2
8020,,Upitėnai,,55.60150,21.63391,https://www.stops.lt/klaipeda/index.html#stop/9415,,,2
8912,,Upitėnai,,55.60150,21.63339,https://www.stops.lt/klaipeda/index.html#stop/9416,,,2
8009,,Šalpėnai,,55.56515,21.70392,https://www.stops.lt/klaipeda/index.html#stop/9225,,,2
8599,,Šalpėnai,,55.56491,21.70321,https://www.stops.lt/klaipeda/index.html#stop/9226,,,2
9627,,Šalpėnai 2,,55.57122,21.72244,https://www.stops.lt/klaipeda/index.html#stop/9228,,,2
8088,,Bareikos,,55.54176,21.66933,https://www.stops.lt/klaipeda/index.html#stop/9219,,,2
8855,,Bareikos,,55.54199,21.66931,https://www.stops.lt/klaipeda/index.html#stop/9220,,,2
8115,,Pakalniškiai,,55.52532,21.69920,https://www.stops.lt/klaipeda/index.html#stop/9221,,,2
7759,,Medsėdžiai,,55.65675,21.48334,https://www.stops.lt/klaipeda/index.html#stop/9399,,,2
8552,,Vainotiškė,,55.54656,21.70540,https://www.stops.lt/klaipeda/index.html#stop/9224,,,2
8968,,Vainotiškė,,55.54634,21.70591,https://www.stops.lt/klaipeda/index.html#stop/9223,,,2
7995,,Valučiai,,55.58020,21.60981,https://www.stops.lt/klaipeda/index.html#stop/9214,,,2
8966,,Valučiai,,55.57967,21.61048,https://www.stops.lt/klaipeda/index.html#stop/9213,,,2
8031,,Laigiai,,55.71091,21.71168,https://www.stops.lt/klaipeda/index.html#stop/9441,,,2
8042,,Laigiai,,55.71034,21.71247,https://www.stops.lt/klaipeda/index.html#stop/9442,,,2
8017,,Šiūpariai,,55.62911,21.44813,https://www.stops.lt/klaipeda/index.html#stop/9361,,,2
8972,,Šiūpariai,,55.62998,21.44827,https://www.stops.lt/klaipeda/index.html#stop/9362,,,2
8002,,Sodas,,55.61396,21.45523,https://www.stops.lt/klaipeda/index.html#stop/9363,,,2
8704,,Sodas,,55.61509,21.45479,https://www.stops.lt/klaipeda/index.html#stop/9364,,,2
7869,,Dauparai,,55.71646,21.30797,https://www.stops.lt/klaipeda/index.html#stop/9312,,,2
7870,,Jonušai,,55.71675,21.29353,https://www.stops.lt/klaipeda/index.html#stop/9314,,,2
7745,,Endriejavas,,55.69686,21.71945,https://www.stops.lt/klaipeda/index.html#stop/9380,,,2
9370,,Endriejavas,,55.69668,21.71953,https://www.stops.lt/klaipeda/index.html#stop/9379,,,2
9850,,Endriejavas,,55.69686,21.71945,https://www.stops.lt/klaipeda/index.html#stop/9380a,,,2
7963,,Gamyklų st.,,55.70564,21.36268,https://www.stops.lt/klaipeda/index.html#stop/9322,,,2
8986,,Gamyklų st.,,55.70499,21.36264,https://www.stops.lt/klaipeda/index.html#stop/9321,,,2
7960,,Kuršlaukio g.,,55.70010,21.36270,https://www.stops.lt/klaipeda/index.html#stop/9323,,,2
7961,,Kuršlaukio g.,,55.70036,21.36295,https://www.stops.lt/klaipeda/index.html#stop/9324,,,2
7957,,Skaidrioji g.,,55.69597,21.36239,https://www.stops.lt/klaipeda/index.html#stop/9325,,,2
7959,,Skaidrioji g.,,55.69778,21.36273,https://www.stops.lt/klaipeda/index.html#stop/9326,,,2
7792,,Dovilai,,55.67739,21.36082,https://www.stops.lt/klaipeda/index.html#stop/9330,,,2
7771,,Kvietiniai,,55.74782,21.40680,https://www.stops.lt/klaipeda/index.html#stop/9018,,,2
7951,,Lietuvininkų g.,,55.68524,21.36220,https://www.stops.lt/klaipeda/index.html#stop/9327,,,2
8032,,Mokinių st.,,55.71699,21.46490,https://www.stops.lt/klaipeda/index.html#stop/9356,,,2
8734,,Mokinių st.,,55.71695,21.46610,https://www.stops.lt/klaipeda/index.html#stop/9355,,,2
7722,,Vėžaičiai,,55.71836,21.47855,https://www.stops.lt/klaipeda/index.html#stop/9357,,,2
7723,,Vėžaičiai,,55.71847,21.47770,https://www.stops.lt/klaipeda/index.html#stop/9358,,,2
9789,,Gerdaujos st.,,55.74073,21.44942,https://www.stops.lt/klaipeda/index.html#stop/9470,,,2
7966,,Dauparai,,55.71715,21.31480,https://www.stops.lt/klaipeda/index.html#stop/9309,,,2
8096,,Dauparai,,55.71682,21.31451,https://www.stops.lt/klaipeda/index.html#stop/9310,,,2
7822,,Šakiniai,,55.74143,21.32301,https://www.stops.lt/klaipeda/index.html#stop/9480,,,2
7823,,Šakiniai,,55.74227,21.32343,https://www.stops.lt/klaipeda/index.html#stop/9479,,,2
7965,,Gargždai,,55.71040,21.39828,https://www.stops.lt/klaipeda/index.html#stop/9342,,,2
8965,,Gargždai,,55.71024,21.39853,https://www.stops.lt/klaipeda/index.html#stop/9341,,,2
7732,,Gargždų AS,,55.71232,21.38731,https://www.stops.lt/klaipeda/index.html#stop/9301,,,2
7854,,Gargždų kapinės,,55.71241,21.35521,https://www.stops.lt/klaipeda/index.html#stop/9306,,,2
7855,,Gargždų kapinės,,55.71253,21.35479,https://www.stops.lt/klaipeda/index.html#stop/9305,,,2
7815,,Laugaliai,,55.71250,21.36347,https://www.stops.lt/klaipeda/index.html#stop/9304,,,2
7816,,Laugaliai,,55.71268,21.36486,https://www.stops.lt/klaipeda/index.html#stop/9303,,,2
6853,,Kvietinių sankryža,,55.75272,21.37841,https://www.stops.lt/klaipeda/index.html#stop/9013,,,2
6854,,Kvietinių sankryža,,55.75308,21.37860,https://www.stops.lt/klaipeda/index.html#stop/9014,,,2
7871,,Užuovėjos st.,,55.72731,21.38381,https://www.stops.lt/klaipeda/index.html#stop/9320,,,2
9675,,Kvietinių g.,,55.72199,21.40370,https://www.stops.lt/klaipeda/index.html#stop/9337,,,2
9299,,Stadiono st.,,55.71666,21.40320,https://www.stops.lt/klaipeda/index.html#stop/9340,,,2
9658,,Stadiono st.,,55.71671,21.40308,https://www.stops.lt/klaipeda/index.html#stop/9339,,,2
8546,,Laisvės st.,,55.66375,21.42469,https://www.stops.lt/klaipeda/index.html#stop/9352,,,2
8059,,Maciuičiai,,55.69801,21.41747,https://www.stops.lt/klaipeda/index.html#stop/9347,,,2
8973,,Maciuičiai,,55.69723,21.41738,https://www.stops.lt/klaipeda/index.html#stop/9348,,,2
8063,,Ryto g.,,55.68993,21.41703,https://www.stops.lt/klaipeda/index.html#stop/9349,,,2
8143,,Ryto g.,,55.68866,21.41756,https://www.stops.lt/klaipeda/index.html#stop/9350,,,2
8008,,1-ieji Žvelsėnai,,55.75398,21.43817,https://www.stops.lt/klaipeda/index.html#stop/9467,,,2
8612,,1-ieji Žvelsėnai,,55.75373,21.43783,https://www.stops.lt/klaipeda/index.html#stop/9468,,,2
7798,,Gerduvėnai,,55.72785,21.42835,https://www.stops.lt/klaipeda/index.html#stop/9464,,,2
7799,,Gerduvėnai,,55.72897,21.42910,https://www.stops.lt/klaipeda/index.html#stop/9463,,,2
8007,,Mokinių st.,,55.71744,21.44723,https://www.stops.lt/klaipeda/index.html#stop/9461,,,2
8993,,Mokinių st.,,55.71730,21.44839,https://www.stops.lt/klaipeda/index.html#stop/9462,,,2
7800,,Rudaičiai,,55.73872,21.43601,https://www.stops.lt/klaipeda/index.html#stop/9466,,,2
7801,,Rudaičiai,,55.73927,21.43649,https://www.stops.lt/klaipeda/index.html#stop/9465,,,2
8023,,Daukšaičiai,,55.56640,21.64108,https://www.stops.lt/klaipeda/index.html#stop/9215,,,2
9045,,Daukšaičiai,,55.56727,21.64111,https://www.stops.lt/klaipeda/index.html#stop/9216,,,2
8038,,Senosios mokyklos st.,,55.59729,21.42328,https://www.stops.lt/klaipeda/index.html#stop/9365,,,2
8971,,Senosios mokyklos st.,,55.59753,21.42441,https://www.stops.lt/klaipeda/index.html#stop/9366,,,2
5510,,Agluonėnai,,55.58940,21.39320,https://www.stops.lt/klaipeda/index.html#stop/8917,,,2
7825,,Agluonėnai,,55.58884,21.39273,https://www.stops.lt/klaipeda/index.html#stop/8918,,,2
7856,,Šlapšilė,,55.71592,21.33739,https://www.stops.lt/klaipeda/index.html#stop/9308,,,2
7857,,Šlapšilė,,55.71604,21.33625,https://www.stops.lt/klaipeda/index.html#stop/9307,,,2
7752,,Kalniškė,,55.70944,21.42189,https://www.stops.lt/klaipeda/index.html#stop/9343,,,2
7753,,Kalniškė,,55.70956,21.42162,https://www.stops.lt/klaipeda/index.html#stop/9344,,,2
9674,,Kvietinių g.,,55.72253,21.40270,https://www.stops.lt/klaipeda/index.html#stop/9338,,,2
9670,,Treniotos st.,,55.72566,21.38817,https://www.stops.lt/klaipeda/index.html#stop/9334,,,2
9671,,Treniotos st.,,55.72507,21.39063,https://www.stops.lt/klaipeda/index.html#stop/9333,,,2
9672,,Vasario 16-osios st.,,55.72371,21.39716,https://www.stops.lt/klaipeda/index.html#stop/9336,,,2
9673,,Vasario 16-osios st.,,55.72374,21.39676,https://www.stops.lt/klaipeda/index.html#stop/9335,,,2
8092,,Judrėnai,,55.58658,21.79876,https://www.stops.lt/klaipeda/index.html#stop/9393,,,2
9839,,Pyktiškė,,55.68421,21.68459,https://www.stops.lt/klaipeda/index.html#stop/9369,,,2
9840,,Pyktiškė,,55.68428,21.68516,https://www.stops.lt/klaipeda/index.html#stop/9368,,,2
9838,,Rudgalviai,,55.67489,21.65981,https://www.stops.lt/klaipeda/index.html#stop/9370,,,2
8062,,Brožiai,,55.65105,21.55837,https://www.stops.lt/klaipeda/index.html#stop/9408,,,2
8996,,Brožiai,,55.65077,21.55857,https://www.stops.lt/klaipeda/index.html#stop/9407,,,2
8069,,Girininkai,,55.67788,21.50862,https://www.stops.lt/klaipeda/index.html#stop/9404,,,2
8081,,Girininkai,,55.67788,21.50803,https://www.stops.lt/klaipeda/index.html#stop/9403,,,2
8000,,Samališkė,,55.69768,21.49191,https://www.stops.lt/klaipeda/index.html#stop/9402,,,2
8620,,Samališkė,,55.69731,21.49203,https://www.stops.lt/klaipeda/index.html#stop/9401,,,2
8064,,Stirbiai,,55.66155,21.54093,https://www.stops.lt/klaipeda/index.html#stop/9406,,,2
8995,,Stirbiai,,55.66133,21.54112,https://www.stops.lt/klaipeda/index.html#stop/9405,,,2
8061,,Trepkalniai,,55.63313,21.56762,https://www.stops.lt/klaipeda/index.html#stop/9410,,,2
8574,,Trepkalniai,,55.63269,21.56770,https://www.stops.lt/klaipeda/index.html#stop/9409,,,2
7791,,Jakai,,55.70144,21.21237,https://www.stops.lt/klaipeda/index.html#stop/9316,,,2
8099,,Jakai,,55.70204,21.21212,https://www.stops.lt/klaipeda/index.html#stop/9315,,,2
7891,,Jonušai,,55.71781,21.29005,https://www.stops.lt/klaipeda/index.html#stop/9313,,,2
8033,,Antkoptis,,55.70656,21.57925,https://www.stops.lt/klaipeda/index.html#stop/9372,,,2
8036,,Antkoptis,,55.70635,21.58034,https://www.stops.lt/klaipeda/index.html#stop/9371,,,2
7964,,Balkalnis,,55.70870,21.55632,https://www.stops.lt/klaipeda/index.html#stop/9360,,,2
8959,,Balkalnis,,55.70842,21.55680,https://www.stops.lt/klaipeda/index.html#stop/9359,,,2
8105,,Endriejavas,,55.70008,21.71788,https://www.stops.lt/klaipeda/index.html#stop/9382,,,2
8084,,Šilėnai,,55.70162,21.65827,https://www.stops.lt/klaipeda/index.html#stop/9376,,,2
8960,,Šilėnai,,55.70146,21.65929,https://www.stops.lt/klaipeda/index.html#stop/9375,,,2
8145,,Tickinai,,55.70084,21.67799,https://www.stops.lt/klaipeda/index.html#stop/9377,,,2
8961,,Tickinai,,55.70093,21.67876,https://www.stops.lt/klaipeda/index.html#stop/9378,,,2
8104,,Žemguliai,,55.70381,21.62027,https://www.stops.lt/klaipeda/index.html#stop/9373,,,2
8962,,Žemguliai,,55.70388,21.62066,https://www.stops.lt/klaipeda/index.html#stop/9374,,,2
7746,,Žadeikiai,,55.73575,21.64868,https://www.stops.lt/klaipeda/index.html#stop/9443,,,2
7747,,Žadeikiai,,55.73559,21.65087,https://www.stops.lt/klaipeda/index.html#stop/9444,,,2
7766,,Utriai,,55.79377,21.43774,https://www.stops.lt/klaipeda/index.html#stop/9473,,,2
8127,,Žvelsėnai,,55.76506,21.43632,https://www.stops.lt/klaipeda/index.html#stop/9471,,,2
8992,,Žvelsėnai,,55.76472,21.43636,https://www.stops.lt/klaipeda/index.html#stop/9472,,,2
7758,,Lapiai,,55.76753,21.45897,https://www.stops.lt/klaipeda/index.html#stop/9469,,,2
6086,,Palangos AS; 15 aikštelė,,55.91380,21.07904,https://www.stops.lt/klaipeda/index.html#stop/9998,,,3
7026,,Palangos AS; 1 aikštelė,,55.91357,21.07809,https://www.stops.lt/klaipeda/index.html#stop/9994,,,3
7206,,Sodų st.,,55.91455,21.08112,https://www.stops.lt/klaipeda/index.html#stop/9990,,,3
6087,,Palangos oro uostas,,55.97151,21.09785,https://www.stops.lt/klaipeda/index.html#stop/9996,,,3
130,,Jaunystės st.,,55.72696,21.17180,https://www.stops.lt/klaipeda/index.html#stop/0701,,,1
7922,,Kalviškiai,,55.50290,21.33105,https://www.stops.lt/klaipeda/index.html#stop/9124,,,2
7923,,Kalviškiai,,55.50243,21.33162,https://www.stops.lt/klaipeda/index.html#stop/9125,,,2
8070,,Lankupiai,,55.49274,21.34693,https://www.stops.lt/klaipeda/index.html#stop/9126,,,2
8564,,Lankupiai,,55.49263,21.34743,https://www.stops.lt/klaipeda/index.html#stop/9127,,,2
6674,,Mickai,,55.61071,21.27182,https://www.stops.lt/klaipeda/index.html#stop/8925,,,2
6675,,Mickai,,55.61231,21.27110,https://www.stops.lt/klaipeda/index.html#stop/8926,,,2
6672,,Spengiai,,55.61955,21.26556,https://www.stops.lt/klaipeda/index.html#stop/8923,,,2
6673,,Spengiai,,55.62068,21.26522,https://www.stops.lt/klaipeda/index.html#stop/8924,,,2
8003,,Mėželiai,,55.52692,21.31340,https://www.stops.lt/klaipeda/index.html#stop/9120,,,2
8779,,Mėželiai,,55.52628,21.31414,https://www.stops.lt/klaipeda/index.html#stop/9121,,,2
8015,,Venckai,,55.51301,21.32035,https://www.stops.lt/klaipeda/index.html#stop/9122,,,2
8953,,Venckai,,55.51357,21.32009,https://www.stops.lt/klaipeda/index.html#stop/9123,,,2
6679,,Dercekliai,,55.58322,21.28453,https://www.stops.lt/klaipeda/index.html#stop/8930,,,2
7937,,Dercekliai,,55.58083,21.28674,https://www.stops.lt/klaipeda/index.html#stop/8929,,,2
6676,,Dituva,,55.59272,21.28537,https://www.stops.lt/klaipeda/index.html#stop/8927,,,2
6677,,Dituva,,55.59323,21.28566,https://www.stops.lt/klaipeda/index.html#stop/8928,,,2
8106,,Lingiai,,55.57279,21.29629,https://www.stops.lt/klaipeda/index.html#stop/9100,,,2
8548,,Lingiai,,55.57413,21.29496,https://www.stops.lt/klaipeda/index.html#stop/9101,,,2
7940,,Priekulė,,55.55328,21.32303,https://www.stops.lt/klaipeda/index.html#stop/9104,,,2
8126,,Priekulės geležinkelio stotis,,55.56441,21.30653,https://www.stops.lt/klaipeda/index.html#stop/9103,,,2
8139,,Priekulės geležinkelio stotis,,55.56291,21.30841,https://www.stops.lt/klaipeda/index.html#stop/9102,,,2
8014,,Dreverna,,55.52142,21.24562,https://www.stops.lt/klaipeda/index.html#stop/9114,,,2
8731,,Dreverna,,55.52130,21.24598,https://www.stops.lt/klaipeda/index.html#stop/9115,,,2
8097,,Pangesai,,55.54747,21.29979,https://www.stops.lt/klaipeda/index.html#stop/9107,,,2
8098,,Pangesai,,55.54758,21.30094,https://www.stops.lt/klaipeda/index.html#stop/9106,,,2
8004,,Pempiai,,55.54661,21.27935,https://www.stops.lt/klaipeda/index.html#stop/9108,,,2
8029,,Pempiai,,55.54691,21.28117,https://www.stops.lt/klaipeda/index.html#stop/9109,,,2
8019,,Pjauliai,,55.54001,21.25340,https://www.stops.lt/klaipeda/index.html#stop/9110,,,2
8028,,Pjauliai,,55.54025,21.25453,https://www.stops.lt/klaipeda/index.html#stop/9111,,,2
8109,,Tiltas,,55.52900,21.25511,https://www.stops.lt/klaipeda/index.html#stop/9112,,,2
8985,,Tiltas,,55.52865,21.25559,https://www.stops.lt/klaipeda/index.html#stop/9113,,,2
8547,,Svencelė,,55.49070,21.25244,https://www.stops.lt/klaipeda/index.html#stop/9116,,,2
102,,Pilies st.,,55.70284,21.13646,https://www.stops.lt/klaipeda/index.html#stop/1207,,,1
107,,Teatro st.,,55.70682,21.13180,https://www.stops.lt/klaipeda/index.html#stop/1202,,,1
103,,Turgaus st.,,55.70591,21.14049,https://www.stops.lt/klaipeda/index.html#stop/1206,,,1
4413,,Turgaus st.,,55.70531,21.14179,https://www.stops.lt/klaipeda/index.html#stop/1205a,,,1
4495,,Senamiesčio st.,,55.70802,21.13675,https://www.stops.lt/klaipeda/index.html#stop/1217,,,1
4496,,Senamiesčio st.,,55.70804,21.13693,https://www.stops.lt/klaipeda/index.html#stop/1218,,,1
9210,,Ventainė,,55.35789,21.20761,https://www.stops.lt/klaipeda/index.html#stop/9147,,,3
7782,,Kintai,,55.42087,21.26361,https://www.stops.lt/klaipeda/index.html#stop/9139,,,3
8100,,Kintų eiguva,,55.43191,21.28035,https://www.stops.lt/klaipeda/index.html#stop/9137,,,3
9155,,Kintų eiguva,,55.43177,21.28001,https://www.stops.lt/klaipeda/index.html#stop/9136,,,3
8777,,Kiošiai,,55.48298,21.34727,https://www.stops.lt/klaipeda/index.html#stop/9128,,,3
8778,,Kiošiai,,55.48358,21.34772,https://www.stops.lt/klaipeda/index.html#stop/9129,,,3
8095,,Kiškiai,,55.44703,21.30354,https://www.stops.lt/klaipeda/index.html#stop/9135,,,3
9154,,Kiškiai,,55.44642,21.30251,https://www.stops.lt/klaipeda/index.html#stop/9134,,,3
8165,,Sakūčiai,,55.45257,21.33992,https://www.stops.lt/klaipeda/index.html#stop/9132,,,3
8131,,Sakūčių mokykla,,55.46121,21.34612,https://www.stops.lt/klaipeda/index.html#stop/9130,,,3
8590,,Sakūčių mokykla,,55.46089,21.34633,https://www.stops.lt/klaipeda/index.html#stop/9131,,,3
9213,,Stankiškiai,,55.38203,21.22992,https://www.stops.lt/klaipeda/index.html#stop/9143,,,3
9214,,Stankiškiai,,55.38156,21.22909,https://www.stops.lt/klaipeda/index.html#stop/9142,,,3
7918,,Šturmai,,55.36521,21.21352,https://www.stops.lt/klaipeda/index.html#stop/9145,,,3
7919,,Šturmai,,55.36479,21.21327,https://www.stops.lt/klaipeda/index.html#stop/9144,,,3
7920,,Suvernai,,55.39790,21.24868,https://www.stops.lt/klaipeda/index.html#stop/9140,,,3
7921,,Suvernai,,55.39861,21.24922,https://www.stops.lt/klaipeda/index.html#stop/9141,,,3
9219,,Ventainė,,55.35605,21.20591,https://www.stops.lt/klaipeda/index.html#stop/9146,,,3
8606,,Ventė,,55.34587,21.19485,https://www.stops.lt/klaipeda/index.html#stop/9149,,,3
8114,,Bružai,,55.44137,21.48808,https://www.stops.lt/klaipeda/index.html#stop/9511,,,3
9016,,Bružai,,55.44249,21.48848,https://www.stops.lt/klaipeda/index.html#stop/9512,,,3
7926,,Čiūteliai,,55.49250,21.42640,https://www.stops.lt/klaipeda/index.html#stop/9503,,,3
7927,,Čiūteliai,,55.49299,21.42619,https://www.stops.lt/klaipeda/index.html#stop/9504,,,3
7845,,Lapaliai,,55.37797,21.46961,https://www.stops.lt/klaipeda/index.html#stop/9527,,,3
7846,,Lapaliai,,55.38051,21.47050,https://www.stops.lt/klaipeda/index.html#stop/9528,,,3
8572,,Lapynai,,55.42580,21.48440,https://www.stops.lt/klaipeda/index.html#stop/9514,,,3
8573,,Lapynai,,55.42403,21.48355,https://www.stops.lt/klaipeda/index.html#stop/9513,,,3
8110,,Montvydai,,55.48006,21.43553,https://www.stops.lt/klaipeda/index.html#stop/9506,,,3
9012,,Montvydai,,55.47978,21.43553,https://www.stops.lt/klaipeda/index.html#stop/9505,,,3
8130,,Rudynai,,55.39187,21.47360,https://www.stops.lt/klaipeda/index.html#stop/9525,,,3
8133,,Rudynai,,55.39278,21.47420,https://www.stops.lt/klaipeda/index.html#stop/9526,,,3
7934,,Saugos,,55.46419,21.46975,https://www.stops.lt/klaipeda/index.html#stop/9508,,,3
7935,,Saugos,,55.46310,21.47146,https://www.stops.lt/klaipeda/index.html#stop/9507,,,3
7924,,Vilkyčiai,,55.51707,21.40081,https://www.stops.lt/klaipeda/index.html#stop/9501,,,3
7925,,Vilkyčiai,,55.51747,21.40026,https://www.stops.lt/klaipeda/index.html#stop/9502,,,3
7847,,Žemaitkiemis,,55.41623,21.48144,https://www.stops.lt/klaipeda/index.html#stop/9516,,,3
8112,,Žemaitkiemis,,55.41435,21.48055,https://www.stops.lt/klaipeda/index.html#stop/9515,,,3
9633,,Šilutės turgus,,55.34878,21.47265,https://www.stops.lt/klaipeda/index.html#stop/9539,,,3
9406,,Žibai,,55.35112,21.47798,https://www.stops.lt/klaipeda/index.html#stop/9536,,,3
9140,,Šilutės geležinkelio stotis,,55.34572,21.48501,https://www.stops.lt/klaipeda/index.html#stop/9537,,,3
9141,,Šilutės geležinkelio stotis,,55.34743,21.48334,https://www.stops.lt/klaipeda/index.html#stop/9538,,,3
9408,,Žibai,,55.35073,21.47994,https://www.stops.lt/klaipeda/index.html#stop/9535,,,3
9631,,K.Į.K,,55.34833,21.46937,https://www.stops.lt/klaipeda/index.html#stop/9532,,,3
9632,,K.Į.K,,55.34841,21.46894,https://www.stops.lt/klaipeda/index.html#stop/9531,,,3
7901,,Garažai,,55.35692,21.46360,https://www.stops.lt/klaipeda/index.html#stop/9533,,,3
7902,,Garažai,,55.35730,21.46397,https://www.stops.lt/klaipeda/index.html#stop/9534,,,3
7903,,Traksėdžiai,,55.36716,21.46705,https://www.stops.lt/klaipeda/index.html#stop/9530,,,3
7904,,Traksėdžiai,,55.36761,21.46694,https://www.stops.lt/klaipeda/index.html#stop/9529,,,3
9411,,Universalinė parduotuvė,,55.34310,21.47166,https://www.stops.lt/klaipeda/index.html#stop/9545,,,3
8080,,Sausgalvių kelias,,55.31760,21.44265,https://www.stops.lt/klaipeda/index.html#stop/9553,,,3
8773,,Sausgalvių kelias,,55.31800,21.44390,https://www.stops.lt/klaipeda/index.html#stop/9554,,,3
9416,,Šlažai,,55.32897,21.45949,https://www.stops.lt/klaipeda/index.html#stop/9551,,,3
9417,,Šlažai,,55.32842,21.45978,https://www.stops.lt/klaipeda/index.html#stop/9552,,,3
7889,,Žalgiriai,,55.30157,21.38747,https://www.stops.lt/klaipeda/index.html#stop/9557,,,3
7890,,Žalgiriai,,55.30140,21.38871,https://www.stops.lt/klaipeda/index.html#stop/9558,,,3
8162,,Žalgiris,,55.30777,21.40978,https://www.stops.lt/klaipeda/index.html#stop/9555,,,3
8762,,Žalgiris,,55.30805,21.41113,https://www.stops.lt/klaipeda/index.html#stop/9556,,,3
7916,,Rusnė,,55.29930,21.37366,https://www.stops.lt/klaipeda/index.html#stop/9559,,,3
9445,,Šilutės AS; 1 aikštelė,,55.34386,21.48397,https://www.stops.lt/klaipeda/index.html#stop/9542,,,3
9407,,Šilutės AS; 5 aikštelė,,55.34387,21.48385,https://www.stops.lt/klaipeda/index.html#stop/9541,,,3
4667,,Pakrantės st.,,55.74273,21.19240,https://www.stops.lt/klaipeda/index.html#stop/8817,,,2
4668,,Pakrantės st.,,55.74161,21.19233,https://www.stops.lt/klaipeda/index.html#stop/8818,,,2
6986,,Eglynai,,55.76297,21.31309,https://www.stops.lt/klaipeda/index.html#stop/8962,,,2
6987,,Eglynai,,55.76327,21.31420,https://www.stops.lt/klaipeda/index.html#stop/8963,,,2
6988,,Smilgynai,,55.76858,21.32562,https://www.stops.lt/klaipeda/index.html#stop/8964,,,2
9048,,Smilgynai,,55.76879,21.32621,https://www.stops.lt/klaipeda/index.html#stop/9078,,,2
6989,,Smilgynai,,55.76834,21.32847,https://www.stops.lt/klaipeda/index.html#stop/8965,,,2
5315,,Sudmantų žiedo st.,,55.70193,21.21061,https://www.stops.lt/klaipeda/index.html#stop/7753,,,1
4831,,Sudmantai,,55.70467,21.20835,https://www.stops.lt/klaipeda/index.html#stop/7798,,,2
9287,,Sudmantų žiedo st.,,55.70193,21.21060,https://www.stops.lt/klaipeda/index.html#stop/7753-1,,,2
3846,,Kurėno st.,,55.66561,21.17415,https://www.stops.lt/klaipeda/index.html#stop/2505,,,1
4217,,Kurėno st.,,55.66525,21.17437,https://www.stops.lt/klaipeda/index.html#stop/2506,,,1
7148,,Veiviržėnai,,55.59734,21.59668,https://www.stops.lt/klaipeda/index.html#stop/9211,,,2
9537,,Veiviržėnai,,55.59744,21.59646,https://www.stops.lt/klaipeda/index.html#stop/9212,,,2
3712,,Baseino st.,,55.71834,21.11861,https://www.stops.lt/klaipeda/index.html#stop/1009,,,1
3713,,Baseino st.,,55.71818,21.11813,https://www.stops.lt/klaipeda/index.html#stop/1010,,,1
183,,J.Janonio st.,,55.72037,21.11842,https://www.stops.lt/klaipeda/index.html#stop/1001,,,1
9835,,Laikina Sportininkų st.,,55.72143,21.11564,https://www.stops.lt/klaipeda/index.html#stop/0305,,,1
9836,,Laikina Sportininkų st.,,55.72139,21.11563,https://www.stops.lt/klaipeda/index.html#stop/0304,,,1
108,,Naujoji uosto st.,,55.71581,21.11912,https://www.stops.lt/klaipeda/index.html#stop/1007,,,1
109,,Naujoji uosto st.,,55.71476,21.12107,https://www.stops.lt/klaipeda/index.html#stop/1008,,,1
110,,J.Janonio st.,,55.71917,21.12013,https://www.stops.lt/klaipeda/index.html#stop/1002,,,1
186,,Stadiono st.,,55.72464,21.11100,https://www.stops.lt/klaipeda/index.html#stop/0301,,,1
4226,,Kapitonų st.,,55.65649,21.17885,https://www.stops.lt/klaipeda/index.html#stop/2507,,,1
4227,,Kapitonų st.,,55.65612,21.17810,https://www.stops.lt/klaipeda/index.html#stop/2508,,,1
7,,Vakarų st.,,55.65371,21.16683,https://www.stops.lt/klaipeda/index.html#stop/2601,,,1
4418,,Vakarų st.,,55.65419,21.16797,https://www.stops.lt/klaipeda/index.html#stop/2601a,,,1
4234,,Škunų st.,,55.65565,21.17155,https://www.stops.lt/klaipeda/index.html#stop/2603,,,1
4235,,Škunų st.,,55.65582,21.17166,https://www.stops.lt/klaipeda/index.html#stop/2604,,,1